name,lat,lng,type
Copenhagen,55.6760968,12.5683371,"['locality', 'political']"
Hellerup Skole,55.7236614,12.580976,"['primary_school', 'school', 'point_of_interest', 'establishment']"
E-reiss ApS.,55.720758,12.581246,"['point_of_interest', 'establishment']"
Reiss Holding ApS,55.72069119999999,12.5811769,"['point_of_interest', 'establishment']"
Intellishore,55.7214231,12.5803142,"['point_of_interest', 'establishment']"
Lundbeckfond Invest A/S,55.72190399999999,12.57987,"['finance', 'point_of_interest', 'establishment']"
Lundbeckfonden,55.721904,12.5798701,"['point_of_interest', 'establishment']"
Lene Berg,55.720265,12.579035,"['art_gallery', 'point_of_interest', 'establishment']"
Buch Mai (Adm.Direktør),55.719463,12.580968,"['point_of_interest', 'establishment']"
Ejendommen Eltham,55.7223505,12.5788168,"['point_of_interest', 'establishment']"
Qualitree v/Thomas Elver Hintze,55.72098399999999,12.578129,"['point_of_interest', 'establishment']"
Wiborg Partnere ApS,55.721948,12.578058,"['real_estate_agency', 'point_of_interest', 'establishment']"
Tandlæge Helene Fiig,55.721383,12.577682,"['dentist', 'health', 'point_of_interest', 'establishment']"
Get Juicy,55.72189909999999,12.5776998,"['point_of_interest', 'establishment']"
Ejerlauget vedrørende rækkehusbebyggelsen ved Solvænget,55.719528,12.578712,"['point_of_interest', 'establishment']"
Svanemøllen Beach Park,55.7195484,12.5830343,"['point_of_interest', 'establishment']"
A/B Eltham,55.72233649999999,12.5786343,"['point_of_interest', 'establishment']"
Fotograf Anne Prytz Schaldemose,55.7191011,12.5812725,"['point_of_interest', 'establishment']"
The dentists in Østerbro,55.7213756,12.5775708,"['dentist', 'doctor', 'health', 'point_of_interest', 'establishment']"
København Ø,55.7096303,12.5768655,"['sublocality_level_1', 'sublocality', 'political']"
Solutionweb ApS,55.71945600000002,12.578737,"['point_of_interest', 'establishment']"
Dawson Aps,55.71945600000002,12.578737,"['point_of_interest', 'establishment']"
Østergaard Morten,55.719401,12.578764,"['point_of_interest', 'establishment']"
Fitness World,55.7219647,12.5777708,"['gym', 'health', 'point_of_interest', 'establishment']"
COZY BY NATURE,55.722941,12.5795817,"['point_of_interest', 'establishment']"
Crescendo Hrm ApS,55.719275,12.578785,"['point_of_interest', 'establishment']"
CPH DELI,55.722316,12.577862,"['point_of_interest', 'establishment']"
Vince-Inc.Com Vincent F. Hendricks,55.71892399999999,12.579708,"['point_of_interest', 'establishment']"
Marmeladekokken Group ApS,55.722316,12.577788,"['point_of_interest', 'establishment']"
Telangana Association Of Denmark,55.7228188,12.5785545,"['point_of_interest', 'establishment']"
Dansk Analyse A/S,55.722684,12.577935,"['point_of_interest', 'establishment']"
Tidal Consult,55.720349,12.57678,"['point_of_interest', 'establishment']"
Administrationsfællesskabet For Bygning 4,55.7222198,12.577033,"['point_of_interest', 'establishment']"
Odal Torben,55.718978,12.5782697,"['point_of_interest', 'establishment']"
Christine Hovmand,55.718444,12.579808,"['point_of_interest', 'establishment']"
Know Now Aps,55.718996,12.577867,"['point_of_interest', 'establishment']"
Bas - Building Advice Store,55.718996,12.577867,"['point_of_interest', 'establishment']"
Klinik For Fodterapi v/Fie Ørum,55.7226627,12.5778955,"['doctor', 'health', 'point_of_interest', 'establishment']"
FatDUX Copenhagen,55.720758,12.581246,"['point_of_interest', 'establishment']"
Svanemøllestranden,55.7195699,12.5831032,"['point_of_interest', 'establishment']"
Cj Catering Engros ApS,55.722316,12.577862,"['food', 'point_of_interest', 'establishment']"
Cobo Ejendomsadministration ApS,55.721948,12.578058,"['point_of_interest', 'establishment']"
Mikope Holding ApS,55.720926,12.580736,"['point_of_interest', 'establishment']"
Pierre Plus Investment ApS,55.720926,12.580736,"['point_of_interest', 'establishment']"
M K P Consultants V/mogens Kjøller Petersen,55.720926,12.580736,"['point_of_interest', 'establishment']"
Wistco Aps,55.721086,12.58048,"['point_of_interest', 'establishment']"
Reason Aps,55.721086,12.58048,"['point_of_interest', 'establishment']"
Consort ejendomsgruppen (Otto Bruuns Fond),55.7213956,12.5806629,"['point_of_interest', 'establishment']"
Adelhardt Kommunikation,55.7208795,12.5801267,"['point_of_interest', 'establishment']"
Liberty Southern Africa ApS,55.720719,12.580143,"['point_of_interest', 'establishment']"
Hlg Holding ApS,55.720719,12.580143,"['point_of_interest', 'establishment']"
Allview,55.7214231,12.5803143,"['point_of_interest', 'establishment']"
Ulla Høj ApS I Likvidation,55.72035599999999,12.580238,"['point_of_interest', 'establishment']"
Friis Niels Hansen,55.72035599999999,12.580238,"['lawyer', 'point_of_interest', 'establishment']"
W-Signs,55.7214743,12.5798719,"['point_of_interest', 'store', 'establishment']"
Vipp Chimney House,55.72122900000001,12.579601,"['lodging', 'point_of_interest', 'establishment']"
Nordflint Capital Partners,55.72145,12.5797617,"['finance', 'point_of_interest', 'establishment']"
Embassy of Slovakia,55.72009199999999,12.580675,"['embassy', 'point_of_interest', 'establishment']"
Rosengården 9 I/S,55.72013399999999,12.581699,"['point_of_interest', 'establishment']"
Københavns Kommune,55.7209858,12.5827474,"['local_government_office', 'point_of_interest', 'establishment']"
Optivation,55.71797600000001,12.582919,"['point_of_interest', 'establishment']"
Frits Pedersen Holding ApS,55.718503,12.579017,"['point_of_interest', 'establishment']"
Københavns Erhvervsudlejning,55.718612,12.578055,"['real_estate_agency', 'point_of_interest', 'establishment']"
Københavns Erhvervsudlejning v/Dorte Lundager,55.718612,12.578055,"['point_of_interest', 'establishment']"
Comedievognen,55.7198103,12.5813482,"['point_of_interest', 'establishment']"
Foreningen Comedievognens Turne Teater,55.719822,12.581272,"['point_of_interest', 'establishment']"
Andelsforeningen Solvænget 17,55.719536,12.581851,"['point_of_interest', 'establishment']"
Bligaard Consult,55.719756,12.5807559,"['point_of_interest', 'establishment']"
Aase Nielsen Kommunikation,55.719756,12.5807559,"['point_of_interest', 'establishment']"
Picnic,55.7195833,12.5831166,"['restaurant', 'food', 'point_of_interest', 'establishment']"
Mbu Aps,55.719463,12.580968,"['point_of_interest', 'establishment']"
K/S Fiolstræde,55.7195829,12.5806098,"['point_of_interest', 'establishment']"
Schaldemose Morten,55.71913,12.581256,"['point_of_interest', 'establishment']"
Sun Power Invest ApS,55.71913,12.581256,"['point_of_interest', 'establishment']"
Soviva Technologies ApS,55.71913,12.581256,"['point_of_interest', 'establishment']"
Matching Holding ApS,55.71901510000001,12.5826976,"['point_of_interest', 'establishment']"
Matching-Vejledning ApS,55.71901510000001,12.5826976,"['clothing_store', 'point_of_interest', 'store', 'establishment']"
Mogul Associates,55.7189772,12.5826303,"['point_of_interest', 'establishment']"
Guttermann,55.719067,12.58098,"['point_of_interest', 'establishment']"
Style Camille v/Camilla Hansen,55.719067,12.58098,"['point_of_interest', 'establishment']"
Lutzen Management,55.7191562,12.5807525,"['point_of_interest', 'establishment']"
Andreas Fysioterapi v/Andrea Haagen Jensen,55.7211875,12.5827447,"['point_of_interest', 'establishment']"
Grif 29 ApS,55.7211875,12.5827447,"['point_of_interest', 'establishment']"
Qvinta v/ Nina Petri,55.7211885,12.5827634,"['point_of_interest', 'establishment']"
Ejendomsselskabet Anja Adamsen ApS,55.7211885,12.5827634,"['point_of_interest', 'establishment']"
Terra P/S,55.71879610000001,12.5826751,"['point_of_interest', 'establishment']"
Fountainhead ApS,55.718765,12.582673,"['point_of_interest', 'establishment']"
Nadja Vienberg,55.7186771,12.5831801,"['point_of_interest', 'establishment']"
Svanemølle-molen,55.7199261,12.5853414,"['park', 'point_of_interest', 'establishment']"
Fredericiagade 16 ApS,55.718511,12.582777,"['point_of_interest', 'establishment']"
Nb Entreprise ApS,55.718511,12.582777,"['point_of_interest', 'establishment']"
Flensborggade 61 ApS,55.718511,12.582777,"['point_of_interest', 'establishment']"
Rygårds Alle A/S,55.718511,12.582777,"['point_of_interest', 'establishment']"
Roarsvej ApS,55.718511,12.582777,"['point_of_interest', 'establishment']"
I/S Bryggervangen 55,55.718511,12.582777,"['point_of_interest', 'establishment']"
Houlberg Holding ApS,55.718511,12.582777,"['real_estate_agency', 'point_of_interest', 'establishment']"
The Laundromat Café,55.706089,12.5807343,"['cafe', 'laundry', 'food', 'point_of_interest', 'establishment']"
Café Bopa,55.7052594,12.5814546,"['cafe', 'night_club', 'meal_takeaway', 'bar', 'restaurant', 'food', 'point_of_interest', 'establishment']"
Apartment in Copenhagen,55.7062278,12.5795998,"['real_estate_agency', 'lodging', 'point_of_interest', 'establishment']"
Baan Thai Wellness,55.7072319,12.5862286,"['point_of_interest', 'establishment']"
U-landsforeningen Svalerne - Fair Trade & Genbrug,55.7063791,12.5813321,"['point_of_interest', 'establishment']"
Broernes VVS,55.70742320000001,12.5828989,"['general_contractor', 'point_of_interest', 'establishment']"
Maconomy A/S,55.7078606,12.5801646,"['point_of_interest', 'establishment']"
Lohmann Thomas Bugge,55.70741,12.5798639,"['point_of_interest', 'establishment']"
Absolut Landskab v/ Anja Boserup,55.7055891,12.5825175,"['general_contractor', 'point_of_interest', 'establishment']"
Dansk El-Service A/S,55.7074251,12.5826891,"['electrician', 'point_of_interest', 'establishment']"
Psykolog Inge Guldal Pedersen,55.7078606,12.5801645,"['health', 'point_of_interest', 'establishment']"
Euroballoon,55.7077965,12.5832968,"['home_goods_store', 'point_of_interest', 'store', 'establishment']"
Captured Photo Studio,55.7060046,12.5803684,"['point_of_interest', 'establishment']"
A/S Hjem Fritidshjem,55.7061516,12.583315,"['point_of_interest', 'establishment']"
Øbro congregation Kindergarten dept. David,55.707278,12.579152,"['school', 'point_of_interest', 'establishment']"
Body Line,55.7069295,12.5794955,"['point_of_interest', 'establishment']"
Kandrups Bogtrykkeri A / S,55.7065505,12.5851645,"['point_of_interest', 'store', 'establishment']"
Brantbjerg Flemming,55.70664360000001,12.5805085,"['point_of_interest', 'establishment']"
Arbejdernes Andels-boligforening afd. 3,55.7077153,12.5812445,"['point_of_interest', 'establishment']"
Larsen Susanne Birk (Fysioterapeut),55.7071825,12.5825693,"['health', 'point_of_interest', 'establishment']"
Lærke Byg v/Carsten Dudzinski,55.7062623,12.5799235,"['general_contractor', 'point_of_interest', 'establishment']"
N.s.e.in West ApS,55.7062994,12.5828987,"['jewelry_store', 'point_of_interest', 'store', 'establishment']"
Psykolog Marianne Kruse,55.7078606,12.5801645,"['health', 'point_of_interest', 'establishment']"
Gregers Hyllested,55.7063381,12.5807199,"['point_of_interest', 'establishment']"
AB Holbækgården,55.7078795,12.5822707,"['point_of_interest', 'establishment']"
Hanne Svejgaard Hair&Makeup,55.7075291,12.5821731,"['point_of_interest', 'establishment']"
Trefold,55.7056342,12.5824983,"['point_of_interest', 'establishment']"
Morten Dyregaard Olsen,55.7060729,12.5817671,"['point_of_interest', 'establishment']"
Jacobsen Bolette,55.70690500000001,12.5798981,"['point_of_interest', 'establishment']"
Hede-Hus Tømreren,55.70631830000001,12.5830357,"['point_of_interest', 'establishment']"
webmastersystem,55.70841360000001,12.5807241,"['grocery_or_supermarket', 'food', 'point_of_interest', 'store', 'establishment']"
Q Communication v. Hanne Qvist,55.70599600000001,12.580223,"['point_of_interest', 'establishment']"
Foreningen Til Støtte For Mødre Og Børn,55.70832679999999,12.5829196,"['point_of_interest', 'establishment']"
Heidi Saatterup Indretning v/ Heidi Saatterup Pedersen,55.7067596,12.5841663,"['point_of_interest', 'establishment']"
Erik Møller,55.7081593,12.5820519,"['general_contractor', 'point_of_interest', 'establishment']"
Konark Tegnestue - Arkitekt & Konstruktør - København - Odense,55.7081899,12.5816039,"['point_of_interest', 'establishment']"
Ejerforeningen Firkanten,55.707875,12.583936,"['point_of_interest', 'establishment']"
TrickleStar - Denmark,55.7065432,12.5793363,"['point_of_interest', 'establishment']"
Ejerforeningen Femkanten,55.7066087,12.5836609,"['point_of_interest', 'establishment']"
Clean Café ApS,55.7058161,12.5808935,"['point_of_interest', 'establishment']"
Niels Elgaard Larsen,55.7063747,12.5812439,"['point_of_interest', 'establishment']"
Fritidshjemmet,55.70580340000001,12.5842593,"['lodging', 'point_of_interest', 'establishment']"
Executive Health & Performance v/ Jacob Søndergaard,55.70693199999999,12.581445,"['point_of_interest', 'establishment']"
Båndsalat Videoproduktion,55.7071825,12.5825693,"['point_of_interest', 'establishment']"
Mark-Marketing,55.70719450000001,12.5814597,"['point_of_interest', 'establishment']"
Tr Lyd v/Theis Romme Larsen,55.70717339999999,12.5814126,"['point_of_interest', 'establishment']"
Real L'hôpital,55.7074444,12.5822006,"['point_of_interest', 'establishment']"
Damdam Architecture & Design,55.706931,12.58119,"['point_of_interest', 'establishment']"
VIArt - Vision of Interactive Art ApS,55.7064853,12.5821095,"['point_of_interest', 'establishment']"
WeSecure ApS.,55.707714,12.583684,"['locksmith', 'point_of_interest', 'establishment']"
Vejlgaard Invest ApS,55.7074251,12.5826891,"['point_of_interest', 'establishment']"
Heinsvig Arkitekter v/Anne Heinsvig,55.7056342,12.5824983,"['point_of_interest', 'establishment']"
Racconto,55.70742320000001,12.5828989,"['point_of_interest', 'establishment']"
Christiansen Michael,55.707637,12.582368,"['point_of_interest', 'establishment']"
Gb Company,55.7071948,12.5807861,"['point_of_interest', 'establishment']"
Ann Heidemann,55.70652299999999,12.580994,"['point_of_interest', 'establishment']"
Copenhagen Academy of Fashion Design,55.7063891,12.5852354,"['point_of_interest', 'establishment']"
Adam Eickhardt,55.706911,12.580631,"['point_of_interest', 'establishment']"
CWT Danmark A/S,55.6395681,12.5842044,"['travel_agency', 'point_of_interest', 'establishment']"
Julsø Byggeri Aps,55.6411586,12.5869308,"['point_of_interest', 'establishment']"
F. F. Gulve v/Frank Egon Falkbøll,55.6397595,12.58781,"['home_goods_store', 'point_of_interest', 'store', 'establishment']"
ABJ Malerentreprice,55.64040800000001,12.588004,"['painter', 'point_of_interest', 'establishment']"
Ejerforeningen Sundby Overdrev,55.63881910000001,12.5868553,"['point_of_interest', 'establishment']"
Kullerup Kurser Støtteforening,55.6395838,12.5863604,"['point_of_interest', 'establishment']"
Cirkeldans,55.6395838,12.5863604,"['school', 'point_of_interest', 'establishment']"
Cool Accounts ApS,55.63942280000001,12.5886757,"['accounting', 'finance', 'point_of_interest', 'establishment']"
Garderforeningen I København,55.63881910000001,12.5868553,"['point_of_interest', 'establishment']"
JAPI Trafikskole - Køreskole centralt på Amager,55.6404316,12.5893067,"['point_of_interest', 'establishment']"
Netto,55.6391667,12.5891667,"['grocery_or_supermarket', 'supermarket', 'food', 'point_of_interest', 'store', 'establishment']"
Dragør Spildevand A/S,55.63986300000001,12.584187,"['point_of_interest', 'establishment']"
HOFOR,55.63986300000001,12.584187,"['point_of_interest', 'establishment']"
V. Guldmann A/S,55.6411189,12.584735,"['point_of_interest', 'establishment']"
Forward,55.63847089999999,12.5855362,"['health', 'point_of_interest', 'establishment']"
Mercedes-Benz Financial Services Denmark A / S,55.641423,12.584912,"['finance', 'point_of_interest', 'establishment']"
Eat Event Aps,55.641423,12.5849115,"['food', 'point_of_interest', 'establishment']"
Just Mokka,55.641423,12.5849115,"['point_of_interest', 'establishment']"
København S,55.6508754,12.5991891,"['sublocality_level_1', 'sublocality', 'political']"
Intelecom Denmark A / S,55.641423,12.5849115,"['point_of_interest', 'establishment']"
Arkitekternes Pensionskasse,55.6383691,12.5890804,"['point_of_interest', 'establishment']"
Beboerforeningen Tuelandsvænge,55.6383691,12.5890804,"['point_of_interest', 'establishment']"
HotelKortet.dk - 1 Sprint Projects,55.6383591,12.5841562,"['travel_agency', 'point_of_interest', 'establishment']"
Københavns SkadedyrsService,55.6383079,12.5899432,"['home_goods_store', 'point_of_interest', 'store', 'establishment']"
Fennel v/Priya Mani,55.63842979999999,12.5840394,"['bus_station', 'transit_station', 'point_of_interest', 'establishment']"
Mads Vestergaard,55.638341,12.589802,"['point_of_interest', 'establishment']"
Psykoterapeut Marianne Fogh Møller,55.6385748,12.5836085,"['point_of_interest', 'establishment']"
Bona Vina,55.6384047,12.5838231,"['point_of_interest', 'establishment']"
Bomuldsdyret,55.638324,12.590087,"['point_of_interest', 'establishment']"
FRI DIT HJERTERUM,55.6384273,12.5836269,"['health', 'point_of_interest', 'establishment']"
Badmintonklubben Triton Vester Mariendal Skole,55.64251299999999,12.587771,"['point_of_interest', 'establishment']"
Ke Holding A/S,55.63986300000001,12.584187,"['point_of_interest', 'establishment']"
Lejerbo København Afdeling 088-1 Kongelundsvej,55.637358,12.586819,"['point_of_interest', 'establishment']"
Gårdfæstevej (Kongelundsvej),55.6403,12.5890559,"['transit_station', 'point_of_interest', 'establishment']"
Digevej (Vejlands Allé),55.641386,12.5866672,"['transit_station', 'point_of_interest', 'establishment']"
DONG Energy City Elnet A/S Ørestaden,55.63986300000001,12.584187,"['point_of_interest', 'establishment']"
Charlottes Køreskole v/Charlotte Knoblauch,55.6404127,12.5893645,"['point_of_interest', 'establishment']"
Rankenberg Com v/Susanna Rebecka Rankenberg,55.6396519,12.5866802,"['point_of_interest', 'establishment']"
Filip Rankenberg,55.6396519,12.5866802,"['point_of_interest', 'establishment']"
P5 Ejendomme ApS,55.6399848,12.5877708,"['point_of_interest', 'establishment']"
Tekniservice/Gunnar Østergreen-Johansen,55.639525,12.5870162,"['point_of_interest', 'establishment']"
Frk.Mie Holding ApS,55.63979029999999,12.5861097,"['point_of_interest', 'establishment']"
DK NH Invest Aps,55.6394579,12.5859569,"['point_of_interest', 'establishment']"
VLH.,55.64033440000001,12.5856643,"['point_of_interest', 'establishment']"
Skandinavisk Parfume Export ApS,55.6404047,12.5885766,"['point_of_interest', 'clothing_store', 'store', 'establishment']"
Kiosk 36,55.63993629999999,12.5887508,"['point_of_interest', 'store', 'establishment']"
Parkering Hofor,55.6400915,12.5887582,"['parking', 'point_of_interest', 'establishment']"
Kongelundsparken I ApS,55.6396846,12.5887137,"['point_of_interest', 'establishment']"
Havana Catering,55.63954949999999,12.5886859,"['point_of_interest', 'establishment']"
Clean Diamond,55.63954949999999,12.5886859,"['laundry', 'point_of_interest', 'establishment']"
Grundejerforeningen Lindegaarden,55.6409526,12.5878572,"['point_of_interest', 'establishment']"
HOFOR fjernkølecentral,55.6405882,12.5852955,"['point_of_interest', 'establishment']"
FEGU,55.63942280000001,12.5886757,"['point_of_interest', 'establishment']"
Numero Regnskab,55.63942280000001,12.5886757,"['clothing_store', 'point_of_interest', 'store', 'establishment']"
Steiner Plan v/Lajos Csaba Steiner,55.63942279999999,12.5886758,"['bus_station', 'transit_station', 'point_of_interest', 'establishment']"
Balogh Communications,55.63942279999999,12.5886758,"['point_of_interest', 'establishment']"
Havil Business House v/K. Majeed,55.6410659,12.5863404,"['point_of_interest', 'establishment']"
Årets Store Ramadanmiddag,55.6410659,12.5863404,"['point_of_interest', 'establishment']"
B'nai B'rith Danmark Loge,55.638926,12.58763,"['point_of_interest', 'establishment']"
Den Blå Diamant v/Maibritt S Madsen,55.637275,12.588456,"['point_of_interest', 'establishment']"
Spejderne,55.637271,12.585508,"['point_of_interest', 'establishment']"
"Kingdom, Nursery and Kindergarten",55.63706500000001,12.5890602,"['school', 'point_of_interest', 'establishment']"
Sweco,55.63752079999999,12.5835971,"['point_of_interest', 'establishment']"
Kemp & Konen Vin,55.6364487,12.5868331,"['point_of_interest', 'establishment']"
Ørestad Klinik for Fodterapi - fodexpert.dk,55.6383979,12.5835628,"['doctor', 'health', 'point_of_interest', 'establishment']"
Bella Center Metro Station,55.6379883,12.5827205,"['point_of_interest', 'establishment']"
Toskiftevej (Kongelundsvej),55.637851,12.5887045,"['transit_station', 'point_of_interest', 'establishment']"
Emil Nicolaj Frøding,55.638686,12.586925,"['point_of_interest', 'establishment']"
Jømu ApS,55.6387358,12.5865319,"['point_of_interest', 'establishment']"
Jørgen Nees Entreprise ApS,55.6387358,12.5865319,"['point_of_interest', 'establishment']"
Amager Skakforening Junior,55.638706,12.587467,"['point_of_interest', 'establishment']"
Gade Annette & Jens,55.638706,12.587467,"['point_of_interest', 'establishment']"
Kastrup Rotary Klub,55.6387521,12.5863309,"['point_of_interest', 'establishment']"
Coordination Committee For Polish-Jewish Youth In Denmark,55.638527,12.587435,"['point_of_interest', 'establishment']"
Kastrup Tårnby Skytteforening,55.6387661,12.5861739,"['point_of_interest', 'establishment']"
Mohammad Nawaz,55.6382127,12.5866405,"['point_of_interest', 'establishment']"
Lejerbo København Afdeling 088-0 Kongelundsvej,55.6387377,12.5885711,"['point_of_interest', 'establishment']"
4-0-17-25 v/Berit Røgild,55.708733,12.577675,"['point_of_interest', 'establishment']"
Domino's Pizza,55.70773,12.5771071,"['meal_delivery', 'meal_takeaway', 'restaurant', 'food', 'point_of_interest', 'establishment']"
1 Duangjai Thai Restaurant,55.70963339999999,12.5780895,"['restaurant', 'food', 'point_of_interest', 'establishment']"
Kost-klinikken Immanuel,55.7113536,12.5771919,"['health', 'point_of_interest', 'establishment']"
Profil Optik,55.708475,12.5777053,"['health', 'point_of_interest', 'store', 'establishment']"
IP-Support.dk Computerværksted,55.70809879999999,12.5730034,"['point_of_interest', 'establishment']"
VagtShop ApS,55.70852509999999,12.573134,"['clothing_store', 'electronics_store', 'point_of_interest', 'store', 'establishment']"
Dagens Fisk,55.70898529999999,12.5776954,"['food', 'point_of_interest', 'store', 'establishment']"
Kirkens Genbrug,55.70934459999999,12.5730637,"['point_of_interest', 'store', 'establishment']"
Banditten,55.70739629999999,12.5777335,"['point_of_interest', 'store', 'establishment']"
Teater Hund & Co.,55.7084431,12.5766692,"['point_of_interest', 'establishment']"
Lægefaglig Service V/hanne Vibeke Kassis,55.7079676,12.5753417,"['doctor', 'health', 'point_of_interest', 'establishment']"
Schannong Mogens (Stenhugger),55.7096303,12.5768655,"['point_of_interest', 'establishment']"
Mobile Fitness A/S,55.7089751,12.5778361,"['point_of_interest', 'establishment']"
Pitcrew,55.70736489999999,12.5771245,"['car_repair', 'point_of_interest', 'store', 'establishment']"
Sisi Skrædder,55.70955,12.577819,"['point_of_interest', 'establishment']"
Mia Mills Fashion,55.70805190000001,12.5777278,"['clothing_store', 'point_of_interest', 'store', 'establishment']"
Matas Østerbrogade 142,55.7075,12.577691,"['drugstore', 'food', 'health', 'point_of_interest', 'clothing_store', 'store', 'establishment']"
Restaurant Hong Cheng,55.708977,12.5754316,"['restaurant', 'food', 'point_of_interest', 'establishment']"
Kaae Peter (Tandlæge),55.70896159999999,12.5779017,"['dentist', 'health', 'point_of_interest', 'establishment']"
The law firm Jelsdorf & Henriksen,55.709624,12.577261,"['point_of_interest', 'establishment']"
Powerhouse Company ApS,55.70850900000001,12.573006,"['point_of_interest', 'establishment']"
Elsebeth Hansen,55.7074151,12.5776504,"['doctor', 'health', 'point_of_interest', 'establishment']"
Rudolph Als A/S,55.7096303,12.5768655,"['point_of_interest', 'establishment']"
Forlaget McGugl (Tonny Gulløv),55.70781089999999,12.5755901,"['point_of_interest', 'establishment']"
Biotech-igg A/S,55.7085896,12.576571,"['point_of_interest', 'establishment']"
Tolstrup Pryds Grafisk Tegnestue,55.7095103,12.5780821,"['point_of_interest', 'establishment']"
Qi - Akupunktur,55.7085708,12.576187,"['health', 'point_of_interest', 'establishment']"
Vibenshus Boligforening,55.70837,12.578376,"['point_of_interest', 'establishment']"
Clear Light Buddhist Centre,55.7096303,12.5768655,"['school', 'point_of_interest', 'establishment']"
Niels Højer Management,55.7095646,12.5765517,"['health', 'point_of_interest', 'establishment']"
Skolefritidshjemmet Vibenshus,55.708763,12.5787877,"['point_of_interest', 'establishment']"
Bispensbo,55.7078487,12.5748965,"['real_estate_agency', 'point_of_interest', 'establishment']"
Mads Stahlschmidt Fotografi,55.7079676,12.5753417,"['point_of_interest', 'establishment']"
I-Guide Aps,55.7089751,12.5778361,"['point_of_interest', 'establishment']"
Sales Leads WSalesLeads®,55.70781089999999,12.5755901,"['point_of_interest', 'establishment']"
Chimalaya ApS,55.70962309999999,12.577242,"['point_of_interest', 'establishment']"
Pengerådgivning,55.7091032,12.5759863,"['finance', 'point_of_interest', 'establishment']"
Andels.net,55.70912149999999,12.5759875,"['point_of_interest', 'establishment']"
LinkGRC ApS,55.70912149999999,12.5759875,"['point_of_interest', 'establishment']"
Københavns Borgerservice Østerbro. Bestil tid på kk.dk/bestiltid.,55.709173,12.576458,"['local_government_office', 'point_of_interest', 'establishment']"
Kontraframe ApS,55.7085747,12.5761092,"['point_of_interest', 'establishment']"
American Womens Club,55.7085747,12.5761092,"['point_of_interest', 'establishment']"
Texthexen v/Lone Spliid,55.7085896,12.576571,"['point_of_interest', 'establishment']"
Frie Jernbaneingeniører ApS,55.7085424,12.5766663,"['point_of_interest', 'establishment']"
Calida Finans ApS,55.7096303,12.5768655,"['point_of_interest', 'establishment']"
Fox United,55.7096303,12.5768655,"['point_of_interest', 'establishment']"
I/S Dueodde Badehotel,55.7096303,12.5768655,"['point_of_interest', 'establishment']"
Herredsfoged Anker Westrup og Hustru Henriette Samt Birkedommer Peter Lauritz Petersons Legat,55.7096303,12.5768655,"['point_of_interest', 'establishment']"
Østerbros Best Accountant,55.70963,12.576866,"['accounting', 'finance', 'point_of_interest', 'establishment']"
Kompasset Ølbar,55.7094424,12.5772516,"['bar', 'point_of_interest', 'establishment']"
Sikkerhed.Org ApS,55.7098303,12.5762693,"['point_of_interest', 'establishment']"
Escalate,55.708963,12.574385,"['point_of_interest', 'establishment']"
Ecasafe A/S,55.7096213,12.5772081,"['point_of_interest', 'establishment']"
Bryggeriet Djævlebryg ApS,55.7089061,12.5776908,"['food', 'point_of_interest', 'establishment']"
Jan Peter Suhm Kinchs Fond Til Stø Tte For Uddannelse af Unge Bankfol K Eller Ansatte I Luftfartsselskab,55.7096777,12.5771949,"['lawyer', 'point_of_interest', 'establishment']"
A/B Wesselsgade 6810,55.708733,12.577675,"['point_of_interest', 'establishment']"
Elviro v/Cordelia Wythe,55.7087331,12.577692,"['point_of_interest', 'clothing_store', 'store', 'establishment']"
Meny,55.7059249,12.5760084,"['supermarket', 'grocery_or_supermarket', 'food', 'point_of_interest', 'store', 'establishment']"
Teater Republique,55.7055044,12.5746531,"['point_of_interest', 'establishment']"
Nordic Sport,55.70628800000001,12.574938,"['point_of_interest', 'clothing_store', 'store', 'establishment']"
Cafe Kapers,55.7050457,12.5768908,"['cafe', 'restaurant', 'food', 'point_of_interest', 'establishment']"
Copenhagen Diner & Steakhouse​,55.70476,12.574208,"['cafe', 'restaurant', 'food', 'point_of_interest', 'establishment']"
Øbro-hallen,55.7047684,12.5763325,"['spa', 'point_of_interest', 'establishment']"
Gastronomia Italiana 3,55.705639,12.5776878,"['meal_delivery', 'meal_takeaway', 'restaurant', 'food', 'point_of_interest', 'establishment']"
ManneQ - Butiksinventar,55.706909,12.576379,"['point_of_interest', 'store', 'establishment']"
Mørch International Fashion V/lotte Mørch,55.7069487,12.5769949,"['point_of_interest', 'store', 'establishment']"
Søren Nørbo Trio,55.706968,12.572514,"['point_of_interest', 'establishment']"
Høkasse.dk,55.707345,12.5727834,"['point_of_interest', 'establishment']"
Saxil Cykler Østerbro,55.7056507,12.5760562,"['bicycle_store', 'point_of_interest', 'store', 'establishment']"
Valua ApS,55.706239,12.574861,"['lawyer', 'point_of_interest', 'establishment']"
Flemming Rasmussen,55.7079898,12.5725481,"['point_of_interest', 'establishment']"
Laila Hansen Interieur,55.70782389999999,12.5716263,"['general_contractor', 'point_of_interest', 'establishment']"
Official iPhone Unlock - IMEI Unlock service,55.70796190000001,12.5723835,"['point_of_interest', 'establishment']"
BM Arkitekter ApS,55.706968,12.572514,"['point_of_interest', 'establishment']"
Online Haj,55.70668,12.5729335,"['point_of_interest', 'establishment']"
GLEESEN,55.70697379999999,12.5764276,"['point_of_interest', 'establishment']"
Master Of Ceremony - MOC ApS,55.70786709999999,12.5728911,"['point_of_interest', 'establishment']"
Chillis Chokolade Hår Frisørsalon,55.70850900000001,12.573006,"['hair_care', 'point_of_interest', 'establishment']"
Mettethorsen.DK,55.707556,12.5744704,"['point_of_interest', 'establishment']"
Arkitektfirma EAK-DESIGN,55.7063786,12.5743688,"['point_of_interest', 'establishment']"
Hypnoterapi v/ Meretelil Larsen - Stress - Angst - Sorg - Rygestop - Forbier,55.70715,12.575222,"['health', 'point_of_interest', 'establishment']"
Levas,55.7063644,12.5749053,"['point_of_interest', 'establishment']"
Arbejdernes Landsbank,55.706404,12.575076,"['bank', 'finance', 'point_of_interest', 'establishment']"
Numeric,55.7064774,12.5752034,"['point_of_interest', 'establishment']"
Psykologfirmaet Carsten Lose,55.707561,12.5752037,"['health', 'point_of_interest', 'establishment']"
Kiellberg Kommunikation,55.706697,12.575627,"['point_of_interest', 'establishment']"
Klappe Kage ApS,55.70615290000001,12.5749305,"['point_of_interest', 'establishment']"
Flyvende Dansk v/Pia Sørensen,55.70724689999999,12.5758219,"['point_of_interest', 'establishment']"
Watchguard Technologies Inc,55.706544,12.575747,"['point_of_interest', 'establishment']"
Notem Studio,55.70685599999999,12.5720552,"['point_of_interest', 'establishment']"
"Serridsslevsvej 15, Seridsslevvej syd",55.7060004,12.572836,"['point_of_interest', 'establishment']"
Breumsø,55.7057926,12.5740367,"['point_of_interest', 'establishment']"
Revolver på Republique,55.7064097,12.5758661,"['point_of_interest', 'establishment']"
Niels Abrahamsen,55.705537,12.574725,"['point_of_interest', 'establishment']"
www.iphoneimeiunlock.info,55.70796190000001,12.5723835,"['point_of_interest', 'store', 'establishment']"
La Piazza,55.7058996,12.5755062,"['restaurant', 'food', 'point_of_interest', 'establishment']"
Thomas Balle Illustration,55.70836329999999,12.574477,"['point_of_interest', 'establishment']"
Julie Fenger,55.705537,12.574725,"['point_of_interest', 'establishment']"
Birgitte Reeslev,55.70839279999999,12.574557,"['health', 'point_of_interest', 'establishment']"
Deas A/S,55.70773,12.5717075,"['point_of_interest', 'establishment']"
Klinik For Fysioterapi v/Mette Lund Bertelsen,55.705537,12.574725,"['point_of_interest', 'establishment']"
Charlotte Tolsgaard Jensen,55.705537,12.574725,"['point_of_interest', 'establishment']"
Østerfælled Torv Selskabslokaler,55.7065211,12.5765605,"['point_of_interest', 'establishment']"
Wood Entreprise,55.708189,12.57132,"['point_of_interest', 'establishment']"
Per Morten Abrahamsen,55.663157,12.574769,"['point_of_interest', 'establishment']"
Kulturhuset Islands Brygge,55.66687389999999,12.5763044,"['point_of_interest', 'establishment']"
BRYGGENS SPISEHUS,55.66695900000001,12.576411,"['restaurant', 'food', 'point_of_interest', 'establishment']"
Dansk Ejendomsmæglerforening,55.664077,12.5733791,"['real_estate_agency', 'point_of_interest', 'establishment']"
ArtRebels,55.6625622,12.5756632,"['point_of_interest', 'establishment']"
Tek Know Holding ApS,55.6641189,12.5734345,"['point_of_interest', 'establishment']"
Nordlið,55.66363029999999,12.5733725,"['point_of_interest', 'establishment']"
Ditte Marie v/Ditte Marie Graversen,55.6658031,12.5756693,"['point_of_interest', 'establishment']"
Aalborg Portland A/S,55.66416599999999,12.5734619,"['point_of_interest', 'establishment']"
Strait Air Transport A / S,55.664374,12.576201,"['point_of_interest', 'establishment']"
K Line (Danmark) ApS.,55.664374,12.576201,"['point_of_interest', 'establishment']"
Simon's Golf A/S,55.664374,12.576201,"['point_of_interest', 'establishment']"
PUBLICURE Law Firm P / S,55.664521,12.573939,"['point_of_interest', 'establishment']"
Scan Real Estate France A/S,55.664374,12.576201,"['point_of_interest', 'establishment']"
Modstrøm Danmark A/S,55.66416599999999,12.5734619,"['point_of_interest', 'establishment']"
Distrupol Nordic AB A/S,55.66385959999999,12.5739399,"['point_of_interest', 'establishment']"
PlotPhoto.com - fotografi,55.66502,12.576864,"['point_of_interest', 'establishment']"
Arthrex Danmark A/S,55.6640968,12.5734053,"['health', 'point_of_interest', 'establishment']"
Indre By,55.6800939,12.5800086,"['sublocality_level_2', 'sublocality', 'political']"
Boligmarkedet A/S,55.6635888,12.5744534,"['point_of_interest', 'establishment']"
Univar B.V.,55.66416599999999,12.5734619,"['point_of_interest', 'establishment']"
Generalkonsulatet For Singapore,55.66394,12.576288,"['point_of_interest', 'establishment']"
United Arab Agencies,55.66394,12.576288,"['point_of_interest', 'establishment']"
Hahnemanns Køkken ApS,55.6650532,12.5746732,"['point_of_interest', 'establishment']"
Byens Drift - Islands Brygge,55.6650532,12.5746732,"['local_government_office', 'point_of_interest', 'establishment']"
National Sundheds-IT,55.6645192,12.5739429,"['point_of_interest', 'establishment']"
any.lease a/s,55.664279,12.573615,"['point_of_interest', 'establishment']"
FolkeFerie.dk,55.664279,12.573615,"['travel_agency', 'point_of_interest', 'establishment']"
John G Jørgensens Fond,55.66416599999999,12.5734619,"['point_of_interest', 'establishment']"
Arcelor Fcs Commercial Denmark A/S,55.66416599999999,12.5734619,"['point_of_interest', 'establishment']"
any.cloud a/s,55.66416359999999,12.5734559,"['point_of_interest', 'establishment']"
E.ON Charging Station,55.6655537,12.5754651,"['point_of_interest', 'establishment']"
Snorretoppen,55.664897,12.575867,"['point_of_interest', 'establishment']"
Studenterpræsterne på KU,55.6645601,12.5772201,"['point_of_interest', 'establishment']"
Foreningen Erhvervsmæglerbasen F.m.b.a,55.6639327,12.573979,"['point_of_interest', 'establishment']"
Tk Bygge-Holding A/S,55.66385959999999,12.5739399,"['point_of_interest', 'establishment']"
Sound21,55.66591469999999,12.5755995,"['point_of_interest', 'establishment']"
Forward - Shipping A/S,55.664374,12.576201,"['point_of_interest', 'establishment']"
Klausen + Partners A / S,55.66361999999999,12.5733801,"['point_of_interest', 'establishment']"
Lumesse A/S,55.6634658,12.5725159,"['point_of_interest', 'establishment']"
Scan-Group A/S,55.6639938,12.5762265,"['point_of_interest', 'establishment']"
Myconsult Dorte Krogshede Ellingsøe,55.66592409999999,12.5764554,"['point_of_interest', 'establishment']"
Denmark-Singapore Club,55.66394,12.576288,"['point_of_interest', 'establishment']"
Islands Brygges Lokalhistoriske Forening og Arkiv,55.6659017,12.5764923,"['point_of_interest', 'establishment']"
Høybye Tømrer & Snedker v/Anders Høybye,55.6657211,12.5767305,"['point_of_interest', 'establishment']"
Kantineforeningen Ib 57,55.6634658,12.5725159,"['point_of_interest', 'establishment']"
Viking Supply Ships,55.6634644,12.5725136,"['point_of_interest', 'establishment']"
SoloCom v/Linus Lorentzen,55.665551,12.577096,"['point_of_interest', 'establishment']"
Centralforeningen for Stampersonel,55.6639935,12.5771088,"['point_of_interest', 'establishment']"
Fox Department,55.6631856,12.5748669,"['point_of_interest', 'establishment']"
Riddertoft,55.663125,12.574274,"['point_of_interest', 'establishment']"
SCAN teak garden furniture v / Kjær-Holm ApS,55.663157,12.574769,"['furniture_store', 'home_goods_store', 'point_of_interest', 'store', 'establishment']"
Vipp A/S,55.6635517,12.5764167,"['point_of_interest', 'establishment']"
T-People v/Lars Frøkjær Hansen,55.66579829999999,12.5772416,"['point_of_interest', 'establishment']"
Emilie Henriksen Studio,55.6649958,12.5774709,"['point_of_interest', 'establishment']"
Trafikforbundet,55.6638041,12.576855,"['point_of_interest', 'establishment']"
Sexologiskolen by Yazmin Fox,55.6663224,12.5767174,"['doctor', 'health', 'point_of_interest', 'establishment']"
Fotograf Morten Grathe,55.66475609999999,12.5776538,"['point_of_interest', 'establishment']"
Fotograf Peter Krasilnikoff ApS,55.6630447,12.5749952,"['point_of_interest', 'establishment']"
Fido's Pølse Og Sandwichbar,55.6431742,12.5912993,"['meal_takeaway', 'restaurant', 'food', 'point_of_interest', 'establishment']"
Profusion Art Glass,55.64301440000001,12.5894145,"['point_of_interest', 'establishment']"
LK Media,55.64315759999999,12.5870632,"['point_of_interest', 'establishment']"
Malermester Michael Midtgaard,55.6434928,12.5887512,"['painter', 'point_of_interest', 'establishment']"
Sammenslutningen af Lokalarkiver I København,55.6431256,12.5870521,"['point_of_interest', 'establishment']"
Kringlevrideren,55.64358799999999,12.5913084,"['bakery', 'food', 'point_of_interest', 'store', 'establishment']"
Malerfirmaet Far og Søn ApS,55.6432446,12.5910721,"['point_of_interest', 'establishment']"
Og Klub Labyrinten Skoleinstitution,55.64296419999999,12.5917814,"['school', 'point_of_interest', 'establishment']"
Københavns Kommune,55.64297079999999,12.5918464,"['point_of_interest', 'establishment']"
Kiosk 119,55.6435133,12.5918015,"['point_of_interest', 'store', 'establishment']"
Danske Harmonikaspilleres Landsforbund,55.64172310000001,12.5926011,"['point_of_interest', 'establishment']"
Video-tips,55.6435491,12.5917574,"['point_of_interest', 'establishment']"
Rainer.DK S.m.b.a,55.64412309999999,12.5912532,"['point_of_interest', 'establishment']"
Psychiatric center Amager,55.64326000000001,12.5855184,"['hospital', 'health', 'point_of_interest', 'establishment']"
Labtech Data Amager,55.6432673,12.591198,"['electronics_store', 'point_of_interest', 'store', 'establishment']"
Aladdins Pizza & Grill,55.64351929999999,12.5913087,"['restaurant', 'food', 'point_of_interest', 'establishment']"
Q8,55.6427086,12.5908799,"['gas_station', 'car_wash', 'point_of_interest', 'store', 'establishment']"
Vejlands Allé (Røde Mellemvej),55.6423628,12.5913832,"['transit_station', 'point_of_interest', 'establishment']"
Røde Mellemvej (Vejlands Allé),55.6424536,12.5915107,"['transit_station', 'point_of_interest', 'establishment']"
Fluffy,55.6414875,12.5894887,"['point_of_interest', 'establishment']"
Krabbe,55.64281539999999,12.5894818,"['point_of_interest', 'establishment']"
Al Forretning,55.64174059999999,12.5871817,"['point_of_interest', 'establishment']"
Spangsberg chokolade,55.6409292,12.5889403,"['grocery_or_supermarket', 'food', 'point_of_interest', 'store', 'establishment']"
Olsen Frank th,55.6412433,12.5904461,"['painter', 'point_of_interest', 'establishment']"
Lyon Autodele ApS,55.64303409999999,12.5882045,"['point_of_interest', 'establishment']"
Røde Mellemvej (Vejlands Allé),55.64247719999999,12.5908531,"['transit_station', 'point_of_interest', 'establishment']"
Global Rengøring v/N.Kanth,55.64098979999999,12.5901672,"['point_of_interest', 'establishment']"
Stjernen B&B,55.64321400000001,12.5883217,"['lodging', 'point_of_interest', 'establishment']"
Digevej (Vejlands Allé),55.6414959,12.5868998,"['transit_station', 'point_of_interest', 'establishment']"
Sitenhance v/Casper Steinhauer,55.6432386,12.5883264,"['point_of_interest', 'establishment']"
Vejlands Allé (Røde Mellemvej),55.6419238,12.591327,"['transit_station', 'point_of_interest', 'establishment']"
Grundejerforeningen Ordrup Mølle,55.6409875,12.5905546,"['point_of_interest', 'establishment']"
Anders Stav Hansen,55.64066039999999,12.5893897,"['point_of_interest', 'establishment']"
Ungdomsuddannelsernes Vejlederforening,55.64066039999999,12.5893897,"['point_of_interest', 'establishment']"
Qvik To Go,55.64279879999999,12.590963,"['point_of_interest', 'establishment']"
Trafz v/Joen Jacob Á Bö Olsen,55.64061779999999,12.5888133,"['point_of_interest', 'establishment']"
Adem Vinduespolering og Trappevask v/Adem Akar,55.64061779999999,12.5888133,"['point_of_interest', 'establishment']"
Grundejerforeningen Vestervang,55.6431884,12.5876524,"['point_of_interest', 'establishment']"
Energy optimization Copenhagen,55.64120330000001,12.5869043,"['general_contractor', 'point_of_interest', 'establishment']"
Orkesteret S.O.S I/S,55.64323779999999,12.5904034,"['point_of_interest', 'establishment']"
Gårdfæstevej (Kongelundsvej),55.640479,12.5890802,"['transit_station', 'point_of_interest', 'establishment']"
Sørensen Ulrik (Automekaniker),55.64046070000001,12.5893696,"['point_of_interest', 'establishment']"
Ubc af 7/10 1994 ApS,55.6431256,12.5870521,"['point_of_interest', 'establishment']"
Baknordisk / Ankhen v/Paw S. Bak,55.64454749999999,12.5913131,"['point_of_interest', 'establishment']"
ShopSolbriller.dk,55.6450873,12.5892698,"['point_of_interest', 'store', 'establishment']"
Frøding / Niels Erik,55.64371370000001,12.5930842,"['point_of_interest', 'establishment']"
Tal Med Mere ApS,55.644862,12.591914,"['accounting', 'finance', 'point_of_interest', 'establishment']"
Hemper v/Mikkel Pedersen,55.6455776,12.589417,"['bus_station', 'transit_station', 'point_of_interest', 'establishment']"
Jørgensen Christian Eggert,55.643596,12.587517,"['church', 'place_of_worship', 'point_of_interest', 'establishment']"
Foreningen Kulturhavn,55.643596,12.587517,"['point_of_interest', 'establishment']"
Amager Division Det Danske Spejderkorps,55.643596,12.587517,"['point_of_interest', 'establishment']"
2game-Cb-Uno Plast,55.6431256,12.5870521,"['point_of_interest', 'establishment']"
Chimera,55.64387319999999,12.5902662,"['point_of_interest', 'establishment']"
Thisgaards ApS,55.6440438,12.5900144,"['point_of_interest', 'establishment']"
Gleerup Mette,55.6440438,12.5900144,"['point_of_interest', 'establishment']"
Scan Import,55.6432446,12.5910721,"['point_of_interest', 'establishment']"
Den Glade Maler ApS,55.6432446,12.5910721,"['point_of_interest', 'establishment']"
Svage I Arbejde,55.6432446,12.5910721,"['point_of_interest', 'establishment']"
Kjøbenhavns Understøttelsesforening,55.643592,12.587056,"['point_of_interest', 'establishment']"
Sauntes Venneforening,55.643592,12.587056,"['point_of_interest', 'establishment']"
Fido's Pølsebar v/Peter Wrønding,55.6432374,12.5911873,"['point_of_interest', 'establishment']"
E/F Røde Mellemvej 114,55.6432374,12.5911873,"['point_of_interest', 'establishment']"
Nexus v/Robert Knudsen,55.6430766,12.591226,"['point_of_interest', 'establishment']"
Besætningen,55.6435028,12.5911246,"['point_of_interest', 'establishment']"
Hot Dog Shop,55.64318240000001,12.5912956,"['meal_takeaway', 'restaurant', 'food', 'point_of_interest', 'establishment']"
Mobil,55.6435361,12.5912663,"['gas_station', 'point_of_interest', 'establishment']"
Frkdainty,55.64406750000001,12.5873905,"['point_of_interest', 'establishment']"
Rasmussen,55.64406750000001,12.5873905,"['point_of_interest', 'establishment']"
Nina Jacobsen,55.644429,12.589787,"['point_of_interest', 'establishment']"
Janne Høyrup,55.6455597,12.5917925,"['point_of_interest', 'establishment']"
Frans Jacobi,55.6455597,12.5917925,"['point_of_interest', 'establishment']"
Dan Loong Aps,55.645703,12.586502,"['point_of_interest', 'establishment']"
Asian Food Import v/Thomas Høgh Christensen,55.6456495,12.5917839,"['point_of_interest', 'establishment']"
Tc Service & Byg ApS,55.6456495,12.5917839,"['point_of_interest', 'establishment']"
RAFFUS,55.64627259999999,12.5895648,"['point_of_interest', 'establishment']"
Forestillingfem,55.6463347,12.5886427,"['point_of_interest', 'establishment']"
Bycyklen Docking Station - Sundby Metrostation,55.6452467,12.5854373,"['point_of_interest', 'establishment']"
Kultur & Kommunikation ApS,55.6464795,12.5887047,"['point_of_interest', 'establishment']"
Grundejerforeningen Friheden,55.645458,12.5928764,"['point_of_interest', 'establishment']"
Pedakri Holding ApS,55.6448088,12.5894868,"['point_of_interest', 'establishment']"
Foreningen Vokalselskabet Glas,55.6448158,12.5896494,"['point_of_interest', 'establishment']"
Jettes Bus,55.644513,12.5876964,"['car_rental', 'point_of_interest', 'establishment']"
Copilots Aps,55.6448925,12.5895302,"['point_of_interest', 'establishment']"
Bugtens Rengøring v/Sylvia Christina Joensen,55.6451886,12.5894501,"['point_of_interest', 'establishment']"
Pawel Holding ApS,55.6451886,12.5894501,"['point_of_interest', 'establishment']"
Patrasus ApS,55.6451919,12.5894599,"['point_of_interest', 'establishment']"
Klaus L Christensen,55.644333,12.59121,"['point_of_interest', 'establishment']"
Ghit ApS,55.646372,12.586706,"['point_of_interest', 'establishment']"
Rengørings Eksperterne,55.64659520000001,12.5922432,"['point_of_interest', 'establishment']"
Pling Plang Music v/Peter Hellemann Jørgensen,55.645211,12.593333,"['point_of_interest', 'establishment']"
Kant Idéudvikling v/Marte Holten Nesheim,55.6462313,12.5928206,"['point_of_interest', 'establishment']"
Tufvesson / Henrik,55.645426,12.593504,"['point_of_interest', 'establishment']"
Paw. - Q.9.X. ApS,55.64520510000001,12.5899175,"['point_of_interest', 'establishment']"
Bagklappen,55.6455625,12.5887775,"['point_of_interest', 'establishment']"
Legeplads Sundbyvester H/F,55.64547869999999,12.5895941,"['point_of_interest', 'establishment']"
Storum,55.64553340000001,12.5879556,"['point_of_interest', 'establishment']"
Complexitet v/Lene Ussing Timm,55.6457475,12.5896109,"['point_of_interest', 'establishment']"
Haldbæk Holding ApS,55.6459669,12.5893854,"['point_of_interest', 'establishment']"
Indkøbsforeningen Sundby-Ø c/o H/Fsundbyvester,55.6459669,12.5893854,"['point_of_interest', 'establishment']"
HK Multi Service v/ Henrik Kjær,55.6459669,12.5893854,"['point_of_interest', 'establishment']"
Fysioterapeut Birgith K. Nielsen,55.6459669,12.5893854,"['point_of_interest', 'establishment']"
Godt Byggeri ApS,55.6459775,12.589687,"['point_of_interest', 'establishment']"
Bycyklen docking station - Sundby Metrostation,55.64499520000001,12.5869942,"['point_of_interest', 'establishment']"
Foreningen af Energi- og Miljøjournalister (Fem),55.64598609999999,12.5899268,"['point_of_interest', 'establishment']"
"Bendt Skjold Hansen, Løsningsfokuseret Behandling",55.64598609999999,12.5899268,"['point_of_interest', 'establishment']"
Sylvia Guesthouse,55.66646300000001,12.5098534,"['lodging', 'point_of_interest', 'establishment']"
Café Phenix,55.6661258,12.5125305,"['cafe', 'bar', 'restaurant', 'food', 'point_of_interest', 'establishment']"
Fitness World,55.66779639999999,12.5136758,"['gym', 'health', 'point_of_interest', 'establishment']"
Fri BikeShop,55.66610799999999,12.512186,"['bicycle_store', 'point_of_interest', 'store', 'establishment']"
"iRepair - iPhone, iPad & Mac Reparationer",55.666252,12.513462,"['point_of_interest', 'store', 'establishment']"
Cafe sommerfuglen,55.6658439,12.5114212,"['cafe', 'bar', 'restaurant', 'food', 'point_of_interest', 'establishment']"
Cafe Ciré,55.6665095,12.5148662,"['cafe', 'restaurant', 'food', 'point_of_interest', 'establishment']"
Hotel Fy og Bi,55.6664648,12.5144234,"['lodging', 'point_of_interest', 'establishment']"
Danske Bank,55.66598759999999,12.5133865,"['bank', 'finance', 'point_of_interest', 'establishment']"
Sticks'n'Sushi,55.6658346,12.513768,"['restaurant', 'food', 'point_of_interest', 'establishment']"
Aage Christensen,55.66915119999999,12.5119614,"['car_repair', 'point_of_interest', 'establishment']"
Z Auto,55.6688311,12.5138526,"['car_repair', 'point_of_interest', 'establishment']"
Wagawaga A/S,55.66910379999999,12.5118688,"['point_of_interest', 'establishment']"
Foreningen Af Filmudlejere I Danmark - Fafid,55.667748,12.514108,"['movie_theater', 'point_of_interest', 'establishment']"
Firma Anders Koch,55.668433,12.511392,"['point_of_interest', 'establishment']"
Scleroseforeningens lokalafdeling for Skanderborg Kommune,55.66837899999999,12.513566,"['point_of_interest', 'establishment']"
Cirkel Byg/Gulv v/Per Torbensen,55.668986,12.510582,"['point_of_interest', 'establishment']"
Super 16,55.667748,12.514108,"['point_of_interest', 'establishment']"
Frederiksberg,55.677069,12.513321,"['locality', 'political']"
Annapurna Heart v/Harriet Liv Laura Skytte,55.66728000000001,12.511129,"['point_of_interest', 'establishment']"
Beauty Xtend,55.6668811,12.5099108,"['hair_care', 'point_of_interest', 'establishment']"
Integreret Institution,55.6679822,12.5129616,"['school', 'point_of_interest', 'establishment']"
Isbjørnen,55.66800000000001,12.513007,"['point_of_interest', 'establishment']"
Valby - Val8,55.66800000000001,12.513007,"['point_of_interest', 'establishment']"
Bedemand København & Valby Ring 32211210,55.6673872,12.5121592,"['funeral_home', 'point_of_interest', 'establishment']"
Konsulent Annette Kolstrup,55.66860399999999,12.512934,"['point_of_interest', 'establishment']"
Shop K9,55.666188,12.513163,"['point_of_interest', 'clothing_store', 'store', 'establishment']"
Ebba Elisabeth Larsens Fond,55.66837899999999,12.513566,"['point_of_interest', 'establishment']"
"Sygeplejeske Lilly Skov, Født Mathiesens Mindelegat",55.66837899999999,12.513566,"['point_of_interest', 'establishment']"
Hellebro,55.66837899999999,12.513566,"['point_of_interest', 'establishment']"
Mads Naumann,55.668634,12.510646,"['point_of_interest', 'establishment']"
Danmarks Flotteste Tømrer,55.668751,12.5106249,"['point_of_interest', 'establishment']"
Danish Liberal Democracy Programme,55.6691283,12.5118804,"['point_of_interest', 'establishment']"
Amdiluxe,55.6691283,12.5118804,"['point_of_interest', 'establishment']"
Bamag Gmbh,55.6691283,12.5118804,"['point_of_interest', 'establishment']"
Min Bio,55.66782,12.513946,"['point_of_interest', 'establishment']"
Dansk Filmskat,55.66782,12.513946,"['point_of_interest', 'establishment']"
Optimuz,55.668552,12.510066,"['point_of_interest', 'establishment']"
BioBusiness,55.667748,12.514108,"['point_of_interest', 'establishment']"
Munksgaard Multimedia,55.66874499999999,12.510211,"['point_of_interest', 'establishment']"
NEM-Super,55.66753459999999,12.5096998,"['supermarket', 'grocery_or_supermarket', 'food', 'point_of_interest', 'store', 'establishment']"
Pixelpirat v/Søren Rud Christensen,55.668962,12.5101669,"['point_of_interest', 'establishment']"
Garage Communication v/Anders Kjærulff Christensen,55.669423,12.511353,"['point_of_interest', 'establishment']"
E/F Erik Ballings Vej 4,55.6665545,12.5126941,"['point_of_interest', 'establishment']"
Energioptimering Danmark ApS,55.66792899999999,12.509215,"['point_of_interest', 'establishment']"
Proudlypresent ApS,55.667542,12.509196,"['general_contractor', 'point_of_interest', 'establishment']"
Field Production - Video Marketing & Advertising,55.6670172,12.5143349,"['point_of_interest', 'establishment']"
Woddl Aps,55.666649,12.513698,"['point_of_interest', 'establishment']"
Mob Vision ApS,55.666649,12.513698,"['point_of_interest', 'establishment']"
CameraKits.co,55.666649,12.513698,"['point_of_interest', 'establishment']"
Dansk Brolægning,55.6661192,12.5122369,"['general_contractor', 'point_of_interest', 'establishment']"
A/b Mosegården,55.66819350000001,12.5084234,"['local_government_office', 'point_of_interest', 'establishment']"
Birgit Hallstein,55.66999800000001,12.512932,"['point_of_interest', 'establishment']"
Fysioterapi & Sundhedsservice v/John Kalo,55.669605,12.510033,"['physiotherapist', 'health', 'point_of_interest', 'establishment']"
Olivias Blomster v/Marianne Kure,55.666188,12.513163,"['florist', 'point_of_interest', 'store', 'establishment']"
Cafe Vik Valby,55.666099,12.511882,"['cafe', 'food', 'point_of_interest', 'establishment']"
Hellerupvej 2010 ApS,55.666099,12.511882,"['point_of_interest', 'establishment']"
Valby Skoservice,55.66616799999999,12.512907,"['point_of_interest', 'establishment']"
Baresi v/Jonas Damsgaard Olsen,55.66934200000001,12.509469,"['point_of_interest', 'establishment']"
Hirschsprung Collection,55.68999299999999,12.5773931,"['museum', 'tourist_attraction', 'point_of_interest', 'establishment']"
Aamanns Deli & Takeaway,55.69,12.5752778,"['meal_takeaway', 'restaurant', 'food', 'point_of_interest', 'store', 'establishment']"
Sticks'n'Sushi,55.6905288,12.5756153,"['restaurant', 'food', 'point_of_interest', 'establishment']"
Restaurant Nagoya,55.6897378,12.5741199,"['restaurant', 'food', 'point_of_interest', 'establishment']"
Byman Sport,55.6917023,12.5766443,"['bicycle_store', 'point_of_interest', 'clothing_store', 'store', 'establishment']"
Produktionsskolen K-U-B-A,55.69032809999999,12.5758957,"['school', 'point_of_interest', 'establishment']"
A/B Lundsgade 10/Upsalagade 10,55.69162350000001,12.5780704,"['point_of_interest', 'establishment']"
Kulby Stilmøbler,55.6885437,12.5729121,"['furniture_store', 'home_goods_store', 'point_of_interest', 'store', 'establishment']"
Praktiserende Landinspektør Jan Hübbe,55.6909506,12.5747657,"['point_of_interest', 'establishment']"
Malerfimaet Hørberg A/S,55.6897624,12.5726409,"['point_of_interest', 'establishment']"
Rørholmsgade arts and crafts,55.6895962,12.5722679,"['art_gallery', 'point_of_interest', 'establishment']"
A/B Samosvej 28,55.6897443,12.5749544,"['point_of_interest', 'establishment']"
Skakklubben K41,55.6902965,12.5769001,"['point_of_interest', 'establishment']"
Smartcig El cigaretter,55.69013330000001,12.5731557,"['electronics_store', 'point_of_interest', 'store', 'establishment']"
Apoteker P.C.N. Friderichsens Legat For Botaniske Rejser,55.68877029999999,12.5747193,"['point_of_interest', 'establishment']"
Øbro corner,55.6900846,12.5746659,"['restaurant', 'bakery', 'food', 'point_of_interest', 'store', 'establishment']"
Sørensen Brian,55.69075789999999,12.5763889,"['point_of_interest', 'establishment']"
Galleri Lejlighedsvis Privacy,55.6894808,12.5732294,"['art_gallery', 'point_of_interest', 'establishment']"
Lissy Boesen Design v/Lissy Boesen,55.6901032,12.5763507,"['point_of_interest', 'establishment']"
Tong Eng Grill,55.6908383,12.5758476,"['restaurant', 'food', 'point_of_interest', 'establishment']"
Jes Vagnby,55.6899502,12.5734556,"['point_of_interest', 'establishment']"
Designvaerk v/Trine Bjerre,55.68918709999999,12.5731698,"['point_of_interest', 'establishment']"
Bohemehjem,55.68953699999999,12.57384,"['furniture_store', 'home_goods_store', 'point_of_interest', 'store', 'establishment']"
Arkitektfirma Hafsteinn Oskarsson,55.68978309999999,12.5726228,"['point_of_interest', 'establishment']"
EllisEllis,55.6903707,12.5772727,"['home_goods_store', 'point_of_interest', 'store', 'establishment']"
Sfinx Film / TV ApS,55.69010129999999,12.5731979,"['point_of_interest', 'establishment']"
Kristine Høeg,55.691112,12.575412,"['point_of_interest', 'establishment']"
Sarah Hvass Nielsen,55.6904129,12.5749747,"['point_of_interest', 'establishment']"
JH-teknik,55.69078520000001,12.5729819,"['point_of_interest', 'establishment']"
StudioAF,55.690001,12.575189,"['point_of_interest', 'establishment']"
Aamanns Etablissement,55.6900908,12.575257,"['restaurant', 'food', 'point_of_interest', 'establishment']"
Kjær,55.6901194,12.5752629,"['point_of_interest', 'establishment']"
Tender v/Cecilie Sofie Svensson,55.6901194,12.5752629,"['point_of_interest', 'establishment']"
Contact Copenhagen v/Lone Monna Andersen,55.6902577,12.5753765,"['point_of_interest', 'establishment']"
Sikkerwiberg I/S,55.6902577,12.5753765,"['point_of_interest', 'establishment']"
Cykelværkstedet,55.69038519999999,12.574966,"['bicycle_store', 'point_of_interest', 'store', 'establishment']"
Under Uret,55.6895786,12.5751078,"['restaurant', 'food', 'point_of_interest', 'establishment']"
Mortensen Lars,55.691663,12.574094,"['point_of_interest', 'establishment']"
Gravy,55.6905413,12.5750899,"['restaurant', 'food', 'point_of_interest', 'establishment']"
Toril Bækmark,55.68918709999999,12.5731698,"['point_of_interest', 'establishment']"
Golden Beards,55.68996079999999,12.5761227,"['point_of_interest', 'store', 'establishment']"
Rytmisk Center Østerbro,55.6905478,12.5756459,"['point_of_interest', 'establishment']"
Frisør Circus,55.6907243,12.5752782,"['hair_care', 'point_of_interest', 'establishment']"
Signe Njust,55.6900526,12.5763964,"['jewelry_store', 'point_of_interest', 'store', 'establishment']"
Maleskole.dk - Atelier Gitte Reinwald,55.69068499999999,12.575768,"['school', 'point_of_interest', 'establishment']"
Tholstrup Anne,55.6908198,12.5750583,"['art_gallery', 'point_of_interest', 'establishment']"
Tænketanken Urban,55.690645,12.576007,"['point_of_interest', 'establishment']"
Bilgrav Design ApS,55.6908628,12.5753879,"['point_of_interest', 'establishment']"
Vedels v/Henrik Vedel,55.69082449999999,12.5758752,"['bakery', 'food', 'point_of_interest', 'store', 'establishment']"
Ørestad Urbane Haver,55.689759,12.5733353,"['park', 'point_of_interest', 'establishment']"
Frans Bak Aps,55.69101300000001,12.575085,"['point_of_interest', 'establishment']"
Biopat Anne Christensen,55.6908044,12.5762293,"['point_of_interest', 'establishment']"
Lydterapeut Klaus Hartvig,55.69068799999999,12.572619,"['health', 'point_of_interest', 'establishment']"
Ejerforeningen Stockholmsgade 21,55.6902965,12.5769001,"['point_of_interest', 'establishment']"
Fanøe Alice,55.690518,12.577268,"['travel_agency', 'point_of_interest', 'establishment']"
Les Terroirs Du Vin,55.690236,12.572916,"['liquor_store', 'food', 'point_of_interest', 'store', 'establishment']"
Hey Darling,55.6910522,12.5760966,"['restaurant', 'meal_takeaway', 'food', 'point_of_interest', 'establishment']"
MPIXEL,55.6891931,12.5733309,"['point_of_interest', 'establishment']"
Geologisk Museum,55.6874652,12.5767806,"['museum', 'tourist_attraction', 'point_of_interest', 'establishment']"
Gefion Gymnasium,55.6883284,12.5813075,"['secondary_school', 'school', 'point_of_interest', 'establishment']"
SMK – Statens Museum for Kunst,55.6888127,12.5783303,"['tourist_attraction', 'museum', 'point_of_interest', 'establishment']"
Inpersona,55.6905806,12.5790833,"['university', 'school', 'point_of_interest', 'establishment']"
Advokatfirmaet Steffen Olsen - Kludt,55.6913,12.578502,"['lawyer', 'point_of_interest', 'establishment']"
Resetfilm,55.691355,12.5785336,"['point_of_interest', 'establishment']"
Miklas Njor Fotografi v/Miklas Njor Nielsen,55.69111600000001,12.5782875,"['point_of_interest', 'establishment']"
Stock35,55.69125209999999,12.5794275,"['point_of_interest', 'establishment']"
Forlaget Fahrenheit,55.69038279999999,12.5771542,"['point_of_interest', 'establishment']"
Electric Flash Boys,55.69038279999999,12.5771542,"['point_of_interest', 'establishment']"
Pædagogiske Psykologers Forening (Ppf),55.690736,12.578116,"['point_of_interest', 'establishment']"
Sukrin Danmark ApS,55.690911,12.578594,"['point_of_interest', 'establishment']"
Downtownpony ApS,55.690911,12.578594,"['point_of_interest', 'establishment']"
Akademiets Skoler,55.69112899999999,12.579155,"['point_of_interest', 'establishment']"
W.p. Holding ApS,55.6913,12.578502,"['point_of_interest', 'establishment']"
Stock 35 v/Tom Mose Petersen,55.691219,12.5794339,"['point_of_interest', 'establishment']"
'tvejegaarden' ApS,55.691116,12.579737,"['point_of_interest', 'establishment']"
Wednesday Architecture,55.69132399999999,12.576769,"['point_of_interest', 'establishment']"
Ejerf Nr 1-68 Matr Nr 5 Rf af Frederiksberg v/Adv H Holm,55.691328,12.5797139,"['point_of_interest', 'establishment']"
Andelsboligforeningen Langelandsvej 28-44,55.691328,12.5797139,"['point_of_interest', 'establishment']"
Ejendomsaktieselskabet Gartnergaarden,55.6912883,12.5797743,"['point_of_interest', 'establishment']"
Ejerforeningen Strandbo II,55.6912883,12.5797743,"['point_of_interest', 'establishment']"
E/F Schlegelshus,55.691328,12.5797139,"['point_of_interest', 'establishment']"
Visao Lejerrådgivning,55.691328,12.5797139,"['point_of_interest', 'establishment']"
E/F Damlunden,55.691328,12.5797139,"['point_of_interest', 'establishment']"
E/F Kavalerboligerne,55.691328,12.5797139,"['point_of_interest', 'establishment']"
Dansk Aps,55.691328,12.5797139,"['point_of_interest', 'establishment']"
Ejerforeningen Valløgård,55.691328,12.5797139,"['point_of_interest', 'establishment']"
E/F Kronprinsessegaarden 1,55.691328,12.5797139,"['point_of_interest', 'establishment']"
Hotel Amager,55.66568840000001,12.5994484,"['lodging', 'point_of_interest', 'establishment']"
Bikuben Kollegium,55.6628802,12.5933973,"['lodging', 'point_of_interest', 'establishment']"
Domino's Pizza,55.665169,12.599319,"['meal_delivery', 'meal_takeaway', 'restaurant', 'food', 'point_of_interest', 'establishment']"
Anders Hinrichs,55.66483110000001,12.5973294,"['point_of_interest', 'establishment']"
Hjembyg v/Aldo Flensborg,55.66413799999999,12.5956499,"['point_of_interest', 'establishment']"
Christopher Kamoga,55.6652192,12.5953193,"['general_contractor', 'point_of_interest', 'establishment']"
Forlaget Klitrose V/ole Bidsted,55.6629786,12.5975804,"['point_of_interest', 'establishment']"
Bryggens Kiropraktisk Klinik,55.66567,12.597684,"['health', 'point_of_interest', 'establishment']"
Dental It Service,55.663908,12.596456,"['dentist', 'health', 'point_of_interest', 'establishment']"
Andersen Entreprise,55.662954,12.5946216,"['general_contractor', 'point_of_interest', 'establishment']"
Jason Idris Alami,55.66271399999999,12.5957238,"['point_of_interest', 'establishment']"
Andelsboligforeningen Under Elmene,55.6647955,12.5971638,"['point_of_interest', 'establishment']"
von Sydow Design,55.66457459999999,12.5986241,"['point_of_interest', 'establishment']"
Vokalgruppen Dopplers,55.663777,12.5971233,"['point_of_interest', 'establishment']"
Studio Henning Sjøstrøm,55.66448399999999,12.599181,"['point_of_interest', 'establishment']"
Fsb,55.6629415,12.5952771,"['point_of_interest', 'establishment']"
Andelsboligforeningen Nymølle,55.66388999999999,12.5958852,"['point_of_interest', 'establishment']"
Planabacus v/Lars Angaard Madsen,55.663843,12.595607,"['point_of_interest', 'establishment']"
Christina Bruun,55.663873,12.5954979,"['point_of_interest', 'establishment']"
K9 Maler Service by Kenneth Nielsen,55.663816,12.596511,"['painter', 'point_of_interest', 'establishment']"
Panda & Potato Translation v/Lei Xian,55.664096,12.595248,"['point_of_interest', 'establishment']"
Zero6,55.664096,12.595248,"['point_of_interest', 'establishment']"
Lars Pellarin,55.664096,12.595248,"['point_of_interest', 'establishment']"
Fast Beat Records v/R Toftlund,55.663368,12.59585,"['point_of_interest', 'establishment']"
Cph Motorcycles,55.66413300000001,12.5972818,"['point_of_interest', 'establishment']"
Pi Gymnastik,55.66427179999999,12.5947528,"['point_of_interest', 'establishment']"
Hundens Tid,55.66390219999999,12.5974648,"['point_of_interest', 'establishment']"
Global Design Morten Kristoffersen,55.664859,12.596527,"['point_of_interest', 'establishment']"
Ilk Music,55.664859,12.596527,"['point_of_interest', 'establishment']"
Anton Zeuthen Photography,55.66435299999999,12.5975149,"['point_of_interest', 'establishment']"
Sej v/Sej Sander Thorsen,55.664737,12.597009,"['point_of_interest', 'establishment']"
Sjællands Erhvervsfremme,55.66333849999999,12.5948653,"['point_of_interest', 'establishment']"
Lene Wagner,55.6630563,12.5960127,"['point_of_interest', 'establishment']"
Baltic Film ApS Under Tvangsopløsning,55.6630561,12.5959805,"['point_of_interest', 'establishment']"
Solen & Stjernerne,55.6627379,12.594267,"['point_of_interest', 'establishment']"
Mn Studio v/Margo Neemela,55.66292740000001,12.5952819,"['point_of_interest', 'establishment']"
Pep Retail ApS Amagerfælledvej Under Konkurs,55.66447099999999,12.594106,"['clothing_store', 'point_of_interest', 'store', 'establishment']"
Seide Retail ApS,55.66447099999999,12.594106,"['point_of_interest', 'establishment']"
"Circle K Amagerfælledvej, Kbh S",55.66447099999999,12.594106,"['gas_station', 'car_wash', 'bakery', 'restaurant', 'food', 'point_of_interest', 'store', 'establishment']"
Serviceforbundet,55.6635636,12.5979738,"['point_of_interest', 'establishment']"
NordicLead ApS,55.66465909999999,12.5978218,"['point_of_interest', 'establishment']"
Livsvejen,55.6651682,12.5968803,"['health', 'point_of_interest', 'establishment']"
Le Analytic v/Lars Eskebæk,55.66533,12.5964443,"['point_of_interest', 'establishment']"
Female Fitness v / Malene Skjelmose,55.6639659,12.5984426,"['point_of_interest', 'establishment']"
Brutalbeige v/Sofie Schelde Hansen,55.663929,12.598494,"['point_of_interest', 'establishment']"
Englehud,55.663929,12.598494,"['point_of_interest', 'establishment']"
SkønHud,55.663929,12.598494,"['beauty_salon', 'point_of_interest', 'establishment']"
Lægerne under Elmene,55.665234,12.597532,"['doctor', 'health', 'point_of_interest', 'establishment']"
Muums Juice,55.6641704,12.5933553,"['cafe', 'food', 'point_of_interest', 'establishment']"
Cil North v/Sami Sassi,55.6648365,12.598475,"['point_of_interest', 'establishment']"
Lone Abrahamsen,55.66494179999999,12.5984099,"['point_of_interest', 'establishment']"
Geniematics Holding,55.66254120000001,12.5973941,"['point_of_interest', 'establishment']"
Pagsberg&Schultz Musik I/S,55.6658193,12.5967483,"['point_of_interest', 'establishment']"
Torsten Freund Vin,55.6658193,12.5967483,"['liquor_store', 'food', 'point_of_interest', 'store', 'establishment']"
Designeriet,55.665046,12.598754,"['point_of_interest', 'establishment']"
Ab Hallandsgade 15,55.66325270000001,12.5989152,"['point_of_interest', 'establishment']"
Claus Frovin,55.6658193,12.5967483,"['point_of_interest', 'establishment']"
Kilberg Media v/Jeppe Kilberg Møller,55.6621236,12.5966299,"['point_of_interest', 'establishment']"
Eastman Chemical Bv,55.67055380000001,12.5817571,"['point_of_interest', 'store', 'establishment']"
Hotel Cph Living,55.6702098,12.5800934,"['lodging', 'point_of_interest', 'establishment']"
Havnebadet Islands Brygge,55.6687002,12.5776548,"['point_of_interest', 'establishment']"
Kiropraktorerne Islands Brygge,55.6674368,12.5778348,"['health', 'point_of_interest', 'establishment']"
Copenhagen Concierges,55.67055380000001,12.581757,"['travel_agency', 'point_of_interest', 'store', 'establishment']"
Teknik- og Miljøforvaltningen,55.666726,12.578753,"['local_government_office', 'point_of_interest', 'establishment']"
The polar bear by Erik Hansen,55.6677581,12.5785246,"['bar', 'point_of_interest', 'establishment']"
Wind Properties A / S,55.6692859,12.5792006,"['finance', 'general_contractor', 'point_of_interest', 'establishment']"
Stagis,55.66846270000001,12.579192,"['point_of_interest', 'establishment']"
Claus Jessen - Konsulentvirksomhed,55.6685958,12.5795695,"['point_of_interest', 'establishment']"
Lene Hald,55.66845009999999,12.5800323,"['jewelry_store', 'point_of_interest', 'store', 'establishment']"
Gurli Elbækgaard,55.6683593,12.5800162,"['point_of_interest', 'store', 'establishment']"
Talking Statues Productions,55.6688719,12.5797909,"['point_of_interest', 'establishment']"
Børnehaven Langebrogade-,55.6702368,12.5810492,"['school', 'point_of_interest', 'establishment']"
Ef Jægersborg Allé 56,55.6689901,12.5799199,"['point_of_interest', 'establishment']"
E/F Fælledvej 9 9a,55.6685939,12.577951,"['point_of_interest', 'establishment']"
Psykolog Annemarie Schrøder,55.66835829999999,12.5790909,"['health', 'point_of_interest', 'establishment']"
Formverk I/S,55.6683593,12.5800162,"['point_of_interest', 'establishment']"
E/F Sankt Knuds Vej 10,55.6689901,12.5799199,"['point_of_interest', 'establishment']"
Viks Aps,55.6689901,12.5799199,"['point_of_interest', 'establishment']"
A/B Sindshvilevej 19-19a,55.6689901,12.5799199,"['point_of_interest', 'establishment']"
Andelsboligforeningen Rosenholms Alle 20-22,55.6689901,12.5799199,"['point_of_interest', 'establishment']"
General Reinsurance Copenhagen Branch Filial af General Reinsurance Ag Tyskland,55.6681341,12.5808764,"['bank', 'finance', 'point_of_interest', 'establishment']"
A/B Istedgade 44-46 Eskildsgade 23,55.6689901,12.5799199,"['point_of_interest', 'establishment']"
K-ren,55.6677447,12.579074,"['point_of_interest', 'establishment']"
A/B Sindshvilevej 13-13a,55.6689901,12.5799199,"['point_of_interest', 'establishment']"
ACT KLINIKKEN v. Psykolog Ole Taggaard Nielsen,55.666713,12.58141,"['health', 'point_of_interest', 'establishment']"
A/B Frederikssundsvej 164 & Holcks Plads 2,55.6689901,12.5799199,"['point_of_interest', 'establishment']"
E/F Bredegrund,55.6689901,12.5799199,"['point_of_interest', 'establishment']"
R. D. Frisør v/Cornelia Gabriela Hansen,55.6688973,12.580709,"['hair_care', 'point_of_interest', 'establishment']"
Albæk Byggerådgivning ApS,55.6680003,12.5812132,"['general_contractor', 'point_of_interest', 'establishment']"
A/B Drejøgade 4-6,55.6689901,12.5799199,"['point_of_interest', 'establishment']"
E/F Viborggade 69,55.6689901,12.5799199,"['point_of_interest', 'establishment']"
Ejendommen Åboulevard 25 v/Bente Else Lybecker-Ravn,55.6689901,12.5799199,"['point_of_interest', 'establishment']"
Château D'azans A/S,55.6689901,12.5799199,"['point_of_interest', 'establishment']"
A/B Eskild/Isted,55.6689901,12.5799199,"['point_of_interest', 'establishment']"
Varmelauget 60,55.6689901,12.5799199,"['point_of_interest', 'establishment']"
A/B Husumgården,55.6689901,12.5799199,"['point_of_interest', 'establishment']"
Andelsboligforeningen Tømrerbo,55.6689901,12.5799199,"['point_of_interest', 'establishment']"
A/B Østrigsgade 11-13/Dounaugade 7,55.6689901,12.5799199,"['bus_station', 'transit_station', 'point_of_interest', 'establishment']"
Andelsboligforeningen Møllegade 17-19,55.6689901,12.5799199,"['point_of_interest', 'establishment']"
Ejendomsaktieselskabet Vaargaarden,55.6689901,12.5799199,"['point_of_interest', 'establishment']"
Andelshaveforeningen Kystengen,55.6689901,12.5799199,"['point_of_interest', 'establishment']"
Gårdlauget De Fire,55.6689901,12.5799199,"['point_of_interest', 'establishment']"
A/B Fussingsvej 2,55.6689901,12.5799199,"['point_of_interest', 'establishment']"
A/B Falken,55.6689901,12.5799199,"['point_of_interest', 'establishment']"
Ab Mølletoften,55.6689901,12.5799199,"['point_of_interest', 'establishment']"
Rec Administration ApS,55.6690245,12.5799155,"['local_government_office', 'point_of_interest', 'establishment']"
Psychotherapy & Coaching,55.6691578,12.5804611,"['health', 'point_of_interest', 'establishment']"
Thai Me Up Wellness,55.66903900000001,12.5806803,"['point_of_interest', 'establishment']"
Restaurant Aristo,55.66933029999999,12.5792742,"['restaurant', 'cafe', 'food', 'point_of_interest', 'establishment']"
Karin Blach Nielsen,55.66845009999999,12.5800323,"['point_of_interest', 'establishment']"
Ulrike Ramin,55.66845009999999,12.5800323,"['jewelry_store', 'point_of_interest', 'store', 'establishment']"
Mind Your Foods,55.6692789,12.5791809,"['point_of_interest', 'establishment']"
Lifecore Biology ApS,55.6692789,12.5791809,"['point_of_interest', 'establishment']"
Business Data A/S,55.6692789,12.5791809,"['point_of_interest', 'establishment']"
ROAST Coffee,55.6683263,12.579511,"['cafe', 'food', 'point_of_interest', 'store', 'establishment']"
Mikael Melbye,55.66835829999999,12.5790909,"['point_of_interest', 'establishment']"
Mt Team ApS,55.6427068,12.5940392,"['point_of_interest', 'establishment']"
Hansen / Hanne Merete,55.64393279999999,12.5915931,"['point_of_interest', 'establishment']"
Carsten Rytter,55.6422748,12.5922396,"['point_of_interest', 'establishment']"
Røde Mellemvej (Vejlands Allé),55.64243829999999,12.5924871,"['transit_station', 'point_of_interest', 'establishment']"
B&B EngvangHouse,55.6447453,12.5938033,"['lodging', 'point_of_interest', 'establishment']"
Fiasco Vine,55.6415458,12.5945347,"['food', 'point_of_interest', 'establishment']"
K Bertram Holding ApS,55.6432837,12.5927245,"['point_of_interest', 'establishment']"
Iclean v/Luiz Paulo Santos Da Silva,55.6432945,12.5929774,"['point_of_interest', 'establishment']"
Jul.Net ApS,55.6422804,12.5929387,"['point_of_interest', 'establishment']"
Radio Fruen,55.6443261,12.5916055,"['point_of_interest', 'establishment']"
Frøding IT og Multiservice v/Niels Erik Frøding,55.64371370000001,12.5930842,"['point_of_interest', 'establishment']"
Glarmester Helge Nymand,55.64390760000001,12.5929211,"['point_of_interest', 'establishment']"
oerestadskole,55.642801,12.5935019,"['school', 'point_of_interest', 'establishment']"
Hotel Copenhagen,55.66523189999999,12.5806891,"['lodging', 'point_of_interest', 'establishment']"
Bagdøren,55.665618,12.5791421,"['restaurant', 'meal_takeaway', 'food', 'point_of_interest', 'establishment']"
Varmt vand fra solen,55.6647386,12.5804244,"['point_of_interest', 'establishment']"
SuperBrugsen Islands Brygge,55.665722,12.580919,"['supermarket', 'grocery_or_supermarket', 'food', 'point_of_interest', 'store', 'establishment']"
SLA,55.66650629999999,12.5797173,"['point_of_interest', 'establishment']"
Isblomsten,55.6661694,12.5791073,"['florist', 'point_of_interest', 'store', 'establishment']"
Schmidt Hammer Lassen Architects,55.66664830000001,12.5798235,"['point_of_interest', 'establishment']"
Claus G Melcher ApS,55.666268,12.577567,"['jewelry_store', 'point_of_interest', 'store', 'establishment']"
LOKK - Landsorganisation af Kvindekrisecentre,55.66587639999999,12.5805705,"['point_of_interest', 'establishment']"
Laerdal Copenhagen A/S,55.6665646,12.5803767,"['point_of_interest', 'establishment']"
Tekstile Billeder & Håndværk,55.6649085,12.577862,"['point_of_interest', 'store', 'establishment']"
Wulff & Konstali Food Shop,55.6653685,12.5780717,"['restaurant', 'food', 'point_of_interest', 'establishment']"
Shape,55.6666054,12.579909,"['point_of_interest', 'establishment']"
dinBabuska,55.6656683,12.5781998,"['point_of_interest', 'clothing_store', 'store', 'establishment']"
HJL BYG,55.66529,12.5791044,"['point_of_interest', 'establishment']"
Bryggens Kajakpolo,55.6672603,12.5766569,"['travel_agency', 'point_of_interest', 'establishment']"
Søs`s Hobby v/Lone Lundberg Hansen,55.66518379999999,12.5793806,"['point_of_interest', 'store', 'establishment']"
Maling.dk,55.66593579999999,12.5792262,"['home_goods_store', 'point_of_interest', 'store', 'establishment']"
IUNO,55.666385,12.58033,"['point_of_interest', 'establishment']"
Bio/Zoo Information v/Michael O. Jørgensen,55.666152,12.577843,"['point_of_interest', 'establishment']"
Boligselskabet Isafjord,55.66569089999999,12.5806946,"['point_of_interest', 'establishment']"
Adaptor Dubbing & Distribution ApS,55.666125,12.5799073,"['point_of_interest', 'establishment']"
SKARP,55.6661093,12.5805689,"['point_of_interest', 'establishment']"
Fontaine A/S,55.66611030000001,12.5805703,"['real_estate_agency', 'point_of_interest', 'establishment']"
Anpartsselskabet af 18. Oktober 2007,55.666335,12.5774139,"['point_of_interest', 'establishment']"
Labcph Aps,55.666385,12.58033,"['point_of_interest', 'establishment']"
Bryggens Psykoterapi,55.66550509999999,12.5793751,"['health', 'point_of_interest', 'establishment']"
Privat & Erhverv v/Martin Vissing,55.6658907,12.5777276,"['point_of_interest', 'establishment']"
Connected (tidl. Manipulation A/S),55.6661238,12.5805977,"['point_of_interest', 'establishment']"
Photojournalist Uffe Weng Madsen,55.6650508,12.5796251,"['point_of_interest', 'establishment']"
Monopolet ApS,55.66610799999999,12.580226,"['point_of_interest', 'establishment']"
Oma Talo (Jan Søndergaard Madsen),55.6671357,12.5777143,"['point_of_interest', 'establishment']"
Cwcarlsen,55.6657733,12.5779714,"['point_of_interest', 'establishment']"
CopenFysio Amager,55.66594070000001,12.5775888,"['point_of_interest', 'establishment']"
Tora Winther Design,55.66621,12.577705,"['point_of_interest', 'establishment']"
Amager Triatlon Klub,55.666335,12.5774139,"['point_of_interest', 'establishment']"
Anne Manna,55.666507,12.5777,"['jewelry_store', 'point_of_interest', 'store', 'establishment']"
Linda Gil,55.6654021,12.5780024,"['point_of_interest', 'establishment']"
sanselig.dk,55.6662137,12.5769771,"['health', 'point_of_interest', 'establishment']"
KropUmulig,55.6662137,12.5769771,"['health', 'point_of_interest', 'establishment']"
Café Alma,55.66549509999999,12.5786565,"['restaurant', 'food', 'point_of_interest', 'establishment']"
Photography v/Michael Johnsen,55.6666873,12.5780034,"['point_of_interest', 'establishment']"
Smyks beading store,55.6659358,12.5792263,"['jewelry_store', 'point_of_interest', 'store', 'establishment']"
Byens Helte,55.66527070000001,12.577965,"['point_of_interest', 'establishment']"
Niels Bohr Institute,55.6969496,12.5715788,"['university', 'point_of_interest', 'establishment']"
Niels Bohr Archive,55.697014,12.5712213,"['library', 'point_of_interest', 'establishment']"
La Esquina,55.6951326,12.5718471,"['cafe', 'bar', 'restaurant', 'food', 'point_of_interest', 'store', 'establishment']"
Netto,55.6979236,12.5748317,"['grocery_or_supermarket', 'supermarket', 'food', 'point_of_interest', 'store', 'establishment']"
Risløv Hobby,55.696172,12.572086,"['point_of_interest', 'store', 'establishment']"
JEWLSCPH,55.697117,12.5732967,"['jewelry_store', 'point_of_interest', 'store', 'establishment']"
Applus Bilsyn,55.69427080000001,12.5705445,"['local_government_office', 'car_repair', 'point_of_interest', 'establishment']"
perzona,55.6949081,12.5722446,"['health', 'point_of_interest', 'establishment']"
Gestaltterapeutisk Klinik,55.69540999999999,12.571714,"['health', 'point_of_interest', 'establishment']"
Lene Seested ApS,55.696988,12.574628,"['point_of_interest', 'establishment']"
Scharff David,55.6951203,12.5713169,"['point_of_interest', 'establishment']"
YogaKroghen,55.6963801,12.5745328,"['travel_agency', 'gym', 'health', 'point_of_interest', 'establishment']"
Rosalie ved Sortedamsøen,55.6949722,12.5725299,"['point_of_interest', 'establishment']"
Infotain.us,55.6972828,12.5736787,"['point_of_interest', 'establishment']"
Børnegården Ryesgade Kbh Komm.integrerede Inst.,55.69529199999999,12.572037,"['point_of_interest', 'establishment']"
Beaware,55.6949171,12.5714726,"['health', 'point_of_interest', 'establishment']"
Blegdammens VVS-Service,55.6965643,12.5722365,"['point_of_interest', 'store', 'establishment']"
Nye Veje,55.69468969999999,12.5725351,"['point_of_interest', 'establishment']"
Clinic For Fodterapi,55.69667989999999,12.5745866,"['doctor', 'health', 'point_of_interest', 'establishment']"
Elicon - Dørtelefon København,55.6960411,12.5711746,"['electrician', 'point_of_interest', 'establishment']"
We Recommend,55.69611769999999,12.573622,"['point_of_interest', 'establishment']"
YogaSalonen,55.697018,12.5746975,"['gym', 'health', 'point_of_interest', 'establishment']"
Frisør Lillemy,55.6958069,12.5724936,"['hair_care', 'point_of_interest', 'establishment']"
EAS - Egekvist Accounting Services,55.69607180000001,12.5745128,"['finance', 'point_of_interest', 'establishment']"
Forlaget Mindspace,55.6954788,12.5719959,"['point_of_interest', 'establishment']"
Dykkerklubben Goplerne,55.696107,12.572175,"['school', 'point_of_interest', 'establishment']"
Cleanxpert,55.69576459999999,12.5707308,"['point_of_interest', 'establishment']"
Center for Psychotherapy and Coaching - Att Liat Ravon Meyhoff,55.696072,12.574513,"['health', 'point_of_interest', 'establishment']"
Blindesign v/ Bastian Tao Lind,55.6972272,12.5734307,"['point_of_interest', 'establishment']"
A/B Ryesgade-Hedemannsgade,55.6959457,12.5730491,"['point_of_interest', 'establishment']"
Frisør moo,55.695947,12.572416,"['hair_care', 'point_of_interest', 'establishment']"
Klinik For Fodterapi v/F.Bel-Mimoune,55.696318,12.571717,"['doctor', 'health', 'point_of_interest', 'establishment']"
Nailtez,55.696318,12.571717,"['point_of_interest', 'establishment']"
Unique Hair v/Marlene Toftgaard Pedersen,55.696318,12.571717,"['hair_care', 'point_of_interest', 'establishment']"
Liberti v/Berith Liberti,55.69558,12.572048,"['point_of_interest', 'establishment']"
Copenhagen Video Production,55.6958753,12.5729177,"['point_of_interest', 'establishment']"
Indisk Pizzeria,55.69587579999999,12.5729268,"['meal_takeaway', 'restaurant', 'food', 'point_of_interest', 'establishment']"
Flot Martin,55.695747,12.572856,"['point_of_interest', 'establishment']"
Shambhala Meditationsgruppen i København,55.6963546,12.5745495,"['place_of_worship', 'school', 'health', 'point_of_interest', 'establishment']"
Optimator,55.69544199999999,12.571828,"['point_of_interest', 'establishment']"
Boligforeningen Aab,55.696579,12.572314,"['point_of_interest', 'establishment']"
Annika Tekst og Formidling,55.69540999999999,12.571714,"['point_of_interest', 'establishment']"
A/B Ryesgade 77 M Fl.,55.69540999999999,12.571714,"['point_of_interest', 'establishment']"
Kognitiv Klinik København I/S,55.69540999999999,12.571714,"['point_of_interest', 'establishment']"
Boligforeningen Aab Afd. 31,55.6966107,12.5723262,"['point_of_interest', 'establishment']"
De-sign.digital,55.69541410000001,12.5712776,"['point_of_interest', 'establishment']"
Starwineconsult,55.6955217,12.5730577,"['liquor_store', 'food', 'point_of_interest', 'store', 'establishment']"
Observator Mag. Scient Julie Marievinter Hansens Rejselegat,55.6966812,12.5713697,"['point_of_interest', 'establishment']"
See Courage Tochange v/Jeannel Dalgaard,55.6952169,12.5714707,"['point_of_interest', 'establishment']"
David Schweiger Studios,55.6956801,12.5705609,"['point_of_interest', 'establishment']"
Brøndum Lyd,55.69611769999999,12.573622,"['point_of_interest', 'establishment']"
Lars Huniche,55.69611769999999,12.573622,"['point_of_interest', 'establishment']"
Arkitekturet ApS,55.6958302,12.5736476,"['point_of_interest', 'establishment']"
Opspin Photography,55.69583,12.573648,"['point_of_interest', 'establishment']"
Mons René Andersen,55.6956255,12.570465,"['point_of_interest', 'establishment']"
Wlfm,55.69510260000001,12.5713189,"['point_of_interest', 'establishment']"
Overdosseringen,55.69497579999999,12.5721117,"['point_of_interest', 'establishment']"
MSB Creations v/Mikkel Skov Benediktson,55.69687259999999,12.5729931,"['point_of_interest', 'establishment']"
Generator,55.68298679999999,12.5822873,"['lodging', 'bar', 'restaurant', 'food', 'point_of_interest', 'establishment']"
Cinemateket,55.683218,12.5783977,"['movie_theater', 'library', 'museum', 'point_of_interest', 'store', 'establishment']"
Wakeup,55.6829838,12.5842309,"['lodging', 'point_of_interest', 'establishment']"
CasaShop,55.6813063,12.5814945,"['furniture_store', 'home_goods_store', 'point_of_interest', 'store', 'establishment']"
Pastis,55.6824986,12.582087,"['restaurant', 'food', 'point_of_interest', 'establishment']"
153,55.68265700000001,12.577648,"['point_of_interest', 'establishment']"
Wood Wood Copenhagen,55.68099900000001,12.58208,"['clothing_store', 'shoe_store', 'point_of_interest', 'store', 'establishment']"
Gosuman ApS,55.6812108,12.5788835,"['point_of_interest', 'establishment']"
Charlie's Bar,55.6806817,12.5802734,"['bar', 'point_of_interest', 'establishment']"
Studenterhuset,55.6811862,12.576256,"['cafe', 'food', 'point_of_interest', 'establishment']"
The Round Tower,55.681347,12.57573,"['tourist_attraction', 'premise', 'point_of_interest', 'establishment']"
Jazzhus Montmartre,55.68195409999999,12.582453,"['night_club', 'bar', 'restaurant', 'food', 'point_of_interest', 'establishment']"
La Vecchia Signora,55.6809327,12.5825617,"['restaurant', 'food', 'point_of_interest', 'establishment']"
Christian Louboutin,55.6808128,12.5821077,"['shoe_store', 'point_of_interest', 'store', 'establishment']"
Nespresso Boutique København,55.679948,12.582047,"['food', 'point_of_interest', 'store', 'establishment']"
Storm - Design Art Fashion,55.681451,12.581378,"['clothing_store', 'shoe_store', 'jewelry_store', 'point_of_interest', 'store', 'establishment']"
Café Victor,55.68069289999999,12.5832463,"['bar', 'restaurant', 'food', 'point_of_interest', 'establishment']"
Sult,55.68309319999999,12.5788436,"['restaurant', 'food', 'point_of_interest', 'establishment']"
Humac,55.6818265,12.5803348,"['electronics_store', 'point_of_interest', 'store', 'establishment']"
Schønnemann,55.6827778,12.5761111,"['restaurant', 'food', 'point_of_interest', 'establishment']"
SATS KBH Adelgade,55.6828696,12.5825552,"['gym', 'spa', 'health', 'point_of_interest', 'establishment']"
El Meson,55.6824205,12.5756843,"['bar', 'restaurant', 'food', 'point_of_interest', 'establishment']"
Urban Outfitters,55.6795269,12.5815699,"['clothing_store', 'home_goods_store', 'point_of_interest', 'store', 'establishment']"
LA Tequila Bar - København,55.681265,12.581069,"['bar', 'point_of_interest', 'establishment']"
Madklubben Grill,55.6803955,12.5805334,"['meal_takeaway', 'restaurant', 'food', 'point_of_interest', 'establishment']"
Gucci,55.67944519999999,12.5813093,"['jewelry_store', 'point_of_interest', 'clothing_store', 'store', 'establishment']"
ALDI,55.6825974,12.5817513,"['supermarket', 'bakery', 'grocery_or_supermarket', 'liquor_store', 'food', 'point_of_interest', 'store', 'establishment']"
Restaurant L'Anfora,55.68350470000001,12.5773498,"['meal_takeaway', 'restaurant', 'food', 'point_of_interest', 'establishment']"
A.C. Perchs Thehandel,55.680676,12.578936,"['cafe', 'food', 'point_of_interest', 'store', 'establishment']"
Arnold Busck,55.6811149,12.5759713,"['book_store', 'point_of_interest', 'store', 'establishment']"
Georg Jensen Damask,55.68056039999999,12.5805966,"['point_of_interest', 'establishment']"
42Raw,55.6806898,12.5805104,"['restaurant', 'cafe', 'food', 'point_of_interest', 'store', 'establishment']"
The Danish Film Institute,55.6829963,12.5785829,"['museum', 'point_of_interest', 'establishment']"
BoConcept,55.6811641,12.5810916,"['furniture_store', 'home_goods_store', 'general_contractor', 'point_of_interest', 'store', 'establishment']"
Café Dan Turell,55.6815478,12.5817281,"['bar', 'cafe', 'food', 'point_of_interest', 'establishment']"
Grønnegade,55.6816195,12.583356,"['restaurant', 'food', 'point_of_interest', 'establishment']"
IO Interactive,55.6811533,12.5818739,"['point_of_interest', 'establishment']"
Lægerne ved Kongens Have v/Frantz Vogel og Elma Korac,55.6818489,12.5802899,"['doctor', 'health', 'point_of_interest', 'establishment']"
Tage Andersen,55.6813889,12.5836111,"['art_gallery', 'point_of_interest', 'store', 'establishment']"
The Zoo,55.68107839999999,12.5807767,"['night_club', 'point_of_interest', 'establishment']"
Bolia.com,55.68243700000001,12.5806675,"['furniture_store', 'home_goods_store', 'point_of_interest', 'store', 'establishment']"
Trykbar,55.682371,12.5804341,"['bar', 'point_of_interest', 'establishment']"
l’Alsace,55.680751,12.582901,"['restaurant', 'food', 'point_of_interest', 'establishment']"
WokShop,55.68129399999999,12.584001,"['restaurant', 'food', 'point_of_interest', 'establishment']"
BOSS Shop,55.6794028,12.5805661,"['clothing_store', 'shoe_store', 'point_of_interest', 'store', 'establishment']"
Anemone Teatret,55.682556,12.576206,"['point_of_interest', 'establishment']"
ZENZ Organic Hairdressing,55.681573,12.583511,"['beauty_salon', 'hair_care', 'point_of_interest', 'establishment']"
Jane Kønig,55.682566,12.581384,"['jewelry_store', 'point_of_interest', 'store', 'establishment']"
Trinitatis Church,55.6815933,12.5761475,"['tourist_attraction', 'church', 'place_of_worship', 'point_of_interest', 'establishment']"
Fitness World,55.6810336,12.5767615,"['point_of_interest', 'establishment']"
København Vaisenhus Apotek,55.6816414,12.575587,"['pharmacy', 'health', 'point_of_interest', 'store', 'establishment']"
Metropol Aps,55.6810894,12.5801387,"['point_of_interest', 'establishment']"
Kunst og Køkkentøj,55.6803487,12.5826881,"['book_store', 'furniture_store', 'home_goods_store', 'point_of_interest', 'store', 'establishment']"
Sakura벚꽃,55.6821977,12.5802121,"['restaurant', 'food', 'point_of_interest', 'establishment']"
E/F Hauser Plads 12,55.6822905,12.5755853,"['point_of_interest', 'establishment']"
119,55.67989499999999,12.579242,"['clothing_store', 'point_of_interest', 'store', 'establishment']"
Skindhuset,55.6808452,12.5760175,"['point_of_interest', 'store', 'establishment']"
Gun-Britt Coiffure,55.6818667,12.5816188,"['hair_care', 'point_of_interest', 'establishment']"
Bertrams Hotel,55.67137599999999,12.545198,"['lodging', 'point_of_interest', 'establishment']"
Hotel Sct. Thomas,55.6728917,12.5482306,"['lodging', 'point_of_interest', 'establishment']"
Granola,55.6734266,12.5498098,"['restaurant', 'food', 'point_of_interest', 'establishment']"
Trævarefabrikernes Udsalg,55.67162899999999,12.546236,"['furniture_store', 'home_goods_store', 'point_of_interest', 'store', 'establishment']"
Café Viggo,55.67403849999999,12.5497383,"['cafe', 'restaurant', 'food', 'point_of_interest', 'establishment']"
Al-Diwan,55.672313,12.548064,"['meal_takeaway', 'restaurant', 'food', 'point_of_interest', 'establishment']"
Les Trois Cochons,55.6737346,12.550013,"['restaurant', 'food', 'point_of_interest', 'establishment']"
Sumo Aps,55.673587,12.545999,"['point_of_interest', 'establishment']"
Frederiksbergcoaching.DK v/Bjarne Schubert,55.673186,12.545867,"['point_of_interest', 'establishment']"
Sexshop Paradiss,55.6748734,12.5478656,"['point_of_interest', 'store', 'establishment']"
Cherry Kiosk,55.6742731,12.5496964,"['point_of_interest', 'store', 'establishment']"
Fitness World,55.671657,12.5464471,"['gym', 'health', 'point_of_interest', 'establishment']"
Falernum,55.6740966,12.5500677,"['bar', 'restaurant', 'food', 'point_of_interest', 'establishment']"
Kop & Kande Frederiksberg,55.6748355,12.5488649,"['hardware_store', 'furniture_store', 'home_goods_store', 'point_of_interest', 'store', 'establishment']"
Restaurant La Fiesta Mexicana,55.67325100000001,12.545173,"['restaurant', 'food', 'point_of_interest', 'establishment']"
Restaurant Klubben,55.6711053,12.5457392,"['restaurant', 'food', 'point_of_interest', 'establishment']"
FAMO,55.67242129999999,12.5507212,"['restaurant', 'food', 'point_of_interest', 'establishment']"
Burger Palace,55.672123,12.5482295,"['restaurant', 'food', 'point_of_interest', 'establishment']"
Føtex,55.67283259999999,12.5514548,"['supermarket', 'grocery_or_supermarket', 'food', 'point_of_interest', 'store', 'establishment']"
Tokyo Restaurant,55.6724028,12.5494123,"['restaurant', 'food', 'point_of_interest', 'establishment']"
YMCA Interpoint Hostel,55.67091869999999,12.5487377,"['lodging', 'point_of_interest', 'establishment']"
Juul's Vin & Spiritus,55.6742142,12.5496693,"['liquor_store', 'point_of_interest', 'store', 'establishment']"
Neverwhere by Anna Morris,55.67127099999999,12.5496079,"['hair_care', 'point_of_interest', 'establishment']"
Meyers Deli,55.6752778,12.5458333,"['restaurant', 'meal_takeaway', 'food', 'point_of_interest', 'store', 'establishment']"
Dameskrædder Margrethe Rasmussen,55.67256039999999,12.5509757,"['bus_station', 'transit_station', 'point_of_interest', 'establishment']"
Centrum Dyreklinik,55.673117,12.5489161,"['veterinary_care', 'point_of_interest', 'establishment']"
Lene's BnB,55.67547929999999,12.548005,"['lodging', 'point_of_interest', 'establishment']"
Henning Larsen Architects,55.6728047,12.5508872,"['point_of_interest', 'establishment']"
The Girl & The Diamond,55.6736734,12.5497785,"['jewelry_store', 'point_of_interest', 'store', 'establishment']"
Klinik for Manuel Medicin,55.67320129999999,12.5448684,"['health', 'point_of_interest', 'establishment']"
Rune Johansen,55.673196,12.550477,"['point_of_interest', 'establishment']"
Ældre Sagen,55.67394540000001,12.5469249,"['point_of_interest', 'establishment']"
Fobsi /Anders Busk Faarborg,55.6743859,12.5466862,"['point_of_interest', 'establishment']"
Nils Erik Gjerdevik,55.67278599999999,12.547279,"['point_of_interest', 'establishment']"
PRAG,55.6720798,12.5473064,"['clothing_store', 'point_of_interest', 'store', 'establishment']"
Skønhedssalon,55.673587,12.545999,"['hair_care', 'point_of_interest', 'establishment']"
Fotograf Kristian Juul Pedersen,55.67392460000001,12.5473247,"['point_of_interest', 'establishment']"
Unikafsked.dk v / Naja May,55.6729669,12.5476874,"['funeral_home', 'point_of_interest', 'establishment']"
"Psychiatry Unit, City of Copenhagen",55.6715569,12.5481885,"['local_government_office', 'point_of_interest', 'establishment']"
Kim Bjørn Arkitekter,55.672897,12.546541,"['point_of_interest', 'establishment']"
LYDUDLEJNING.net,55.67169269999999,12.54694,"['point_of_interest', 'establishment']"
Pdh Music A / S,55.67278100000001,12.5491077,"['point_of_interest', 'establishment']"
Salon Lindholdt,55.67280779999999,12.5445436,"['beauty_salon', 'hair_care', 'point_of_interest', 'establishment']"
Analytic v / Bjarne Larsen,55.67320129999999,12.5448684,"['liquor_store', 'food', 'point_of_interest', 'store', 'establishment']"
Peter Torp,55.6722212,12.5477774,"['doctor', 'health', 'point_of_interest', 'establishment']"
Stine Ladefoged,55.671994,12.545425,"['point_of_interest', 'establishment']"
School and Parents,55.6712962,12.5482285,"['point_of_interest', 'establishment']"
Salon Ghina/ Frisør Damer og Herrer,55.6713,12.5460384,"['hair_care', 'health', 'point_of_interest', 'establishment']"
Csb Revision ApS,55.671564,12.545991,"['accounting', 'finance', 'point_of_interest', 'establishment']"
Skrædderservice Tøj City,55.6720658,12.5471195,"['point_of_interest', 'clothing_store', 'store', 'establishment']"
Sun Jing,55.673227,12.544773,"['health', 'point_of_interest', 'establishment']"
Alhambravej Tandlægerne,55.6738504,12.5438621,"['dentist', 'health', 'point_of_interest', 'establishment']"
Karismacentret v/Grith Bertelsen,55.6718266,12.5470642,"['beauty_salon', 'health', 'point_of_interest', 'establishment']"
Planet Tan V/anne Agerskov,55.67473179999999,12.5480833,"['hair_care', 'point_of_interest', 'establishment']"
Lars Heiberg,55.671583,12.546042,"['point_of_interest', 'establishment']"
Ox Design ApS,55.6718813,12.5452626,"['point_of_interest', 'establishment']"
Fysioterapeut Camilla Hansen,55.67145,12.5471419,"['point_of_interest', 'establishment']"
Kristian Gauhl Bentsen,55.6747434,12.5472148,"['dentist', 'health', 'point_of_interest', 'establishment']"
Foreningen Mærk Christiania,55.673854,12.5970781,"['point_of_interest', 'establishment']"
Cafe Nemoland,55.6728308,12.6002744,"['cafe', 'restaurant', 'food', 'point_of_interest', 'establishment']"
Spiseloppen,55.673821,12.596963,"['restaurant', 'food', 'point_of_interest', 'establishment']"
The Danish Scout And Guide Association,55.67519000000001,12.6029851,"['point_of_interest', 'establishment']"
Loppen,55.673854,12.597078,"['point_of_interest', 'establishment']"
Christiania Bikes,55.6736475,12.601172,"['bicycle_store', 'point_of_interest', 'store', 'establishment']"
Bodenhoff Fritidscenter,55.6754544,12.6007495,"['point_of_interest', 'establishment']"
Cosi Fan Tutte,55.6748363,12.5980127,"['restaurant', 'meal_takeaway', 'food', 'point_of_interest', 'establishment']"
Vuggestuen Trekanten,55.6760732,12.6012579,"['point_of_interest', 'establishment']"
Københavns Kommune,55.6750198,12.6012125,"['city_hall', 'local_government_office', 'point_of_interest', 'establishment']"
Malerikonserveringen,55.6759973,12.5994459,"['point_of_interest', 'establishment']"
Landsforbundet DUI-LEG og VIRKE,55.6754005,12.6021472,"['point_of_interest', 'establishment']"
Anne Romme,55.67573459999999,12.5999014,"['point_of_interest', 'establishment']"
Alis,55.673963,12.598089,"['clothing_store', 'shoe_store', 'point_of_interest', 'store', 'establishment']"
Malerfirmaet Vaabengaard,55.6759435,12.5993009,"['painter', 'point_of_interest', 'establishment']"
Karen Christensen Designs v/Karen Foged Christensen,55.6743782,12.6009011,"['point_of_interest', 'establishment']"
Q Smedien,55.6737194,12.6008687,"['point_of_interest', 'establishment']"
Middelgrundens Vindmøllelaug I/S,55.6740428,12.6014069,"['point_of_interest', 'establishment']"
Spejdernes Administrationsfællesskab,55.6752282,12.6030223,"['point_of_interest', 'establishment']"
Spejdercenter Holmen,55.6753462,12.6029769,"['point_of_interest', 'establishment']"
Linda Balle Grafik,55.675816,12.599529,"['point_of_interest', 'establishment']"
Taxivognmand Ejup Ljatifi,55.675967,12.599776,"['point_of_interest', 'establishment']"
Copenhagen Watersports,55.6760256,12.6021307,"['point_of_interest', 'establishment']"
Sounougal,55.6757866,12.599131,"['point_of_interest', 'establishment']"
Insats v/Pia Maarup Carlsson,55.6758561,12.5992156,"['point_of_interest', 'establishment']"
Hal C,55.67625280000001,12.6018112,"['gym', 'health', 'point_of_interest', 'establishment']"
Pernille Kleinert,55.6755682,12.5988604,"['point_of_interest', 'establishment']"
Teaterforeningen Frøken Fracasos Kompagni,55.6754979,12.5987757,"['point_of_interest', 'establishment']"
Sports-Klinikken.Com v/Kasper Fardan,55.6753501,12.5985907,"['point_of_interest', 'establishment']"
Christianshavns Karateklub,55.67407900000001,12.6033817,"['health', 'point_of_interest', 'establishment']"
Deluxcph,55.6735631,12.6009653,"['clothing_store', 'point_of_interest', 'store', 'establishment']"
Christiania Jazz Club,55.67385969999999,12.5993413,"['bar', 'point_of_interest', 'establishment']"
Virksomhedsantropologi v/Jiesper Tristanpedersen,55.67349099999999,12.600503,"['point_of_interest', 'establishment']"
Forlaget - Træ I Blomst v/Kirsten Munk Hansen,55.67574669999999,12.5986212,"['point_of_interest', 'establishment']"
Laegdsgaard v/Kristian Lægdsgaard Madsen,55.67567619999999,12.5985366,"['point_of_interest', 'establishment']"
Tjenerteam v/Nya Calmer Kristensen,55.67634899999999,12.599652,"['point_of_interest', 'establishment']"
Boligforeningen Aab Afd. 68,55.6748862,12.5980639,"['point_of_interest', 'establishment']"
Gry Holmskov Design,55.67619999999999,12.598588,"['point_of_interest', 'establishment']"
Morgenstedet,55.6738051,12.6031623,"['restaurant', 'food', 'point_of_interest', 'establishment']"
European Baisikeli,55.67619999999999,12.598588,"['point_of_interest', 'establishment']"
Grandad,55.67619999999999,12.598588,"['point_of_interest', 'establishment']"
Martin Clausen v/Martin Clausen,55.67614,12.598487,"['point_of_interest', 'establishment']"
sfbc,55.673948,12.59835,"['point_of_interest', 'establishment']"
Grønsagen,55.6730935,12.6005068,"['grocery_or_supermarket', 'food', 'point_of_interest', 'store', 'establishment']"
Bevar Christiania Boden,55.67394179999999,12.5983225,"['clothing_store', 'point_of_interest', 'store', 'establishment']"
Søren Hertz Snedker og Tømrer ApS,55.675768,12.597975,"['point_of_interest', 'establishment']"
Grøntsagen,55.67310149999999,12.6004878,"['restaurant', 'food', 'point_of_interest', 'establishment']"
Evalueringskompagniet,55.67601200000001,12.5981,"['point_of_interest', 'establishment']"
Københavns kajakpoloklub (k-polo),55.6755219,12.6042973,"['point_of_interest', 'establishment']"
Snedkeriet Optimisten A.m.b.a,55.673976,12.5976868,"['point_of_interest', 'establishment']"
Alphabits v/Anders Hørsted,55.6748974,12.5974687,"['point_of_interest', 'establishment']"
Poul Gandrup,55.67692899999999,12.600103,"['point_of_interest', 'establishment']"
Amiiko,55.67541500000001,12.5974489,"['point_of_interest', 'establishment']"
Søren Dahl Nielsen,55.6754302,12.5974051,"['point_of_interest', 'establishment']"
Alis Wonderland,55.6737785,12.5980475,"['point_of_interest', 'establishment']"
Atelier Kunstart,55.67458339999999,12.6045961,"['art_gallery', 'point_of_interest', 'establishment']"
The Essence,55.67458339999999,12.6045961,"['clothing_store', 'point_of_interest', 'store', 'establishment']"
Christiania,55.67287229999999,12.6009899,"['museum', 'point_of_interest', 'establishment']"
Daginstitutionen Østen for solen - Amager Klynge E,55.6476351,12.592966,"['school', 'point_of_interest', 'establishment']"
Fritidshjemmet Troldehytten,55.648729,12.592789,"['point_of_interest', 'establishment']"
La Carta Byg A/S - Entreprenør København,55.65055049999999,12.5908167,"['point_of_interest', 'establishment']"
