name,lat,lng,type
Copenhagen,55.6760968,12.5683371,"['locality', 'political']"
Gucci,55.67944519999999,12.5813093,"['jewelry_store', 'point_of_interest', 'clothing_store', 'store', 'establishment']"
Urban Outfitters,55.6795269,12.5815699,"['clothing_store', 'home_goods_store', 'point_of_interest', 'store', 'establishment']"
165,55.67746589999999,12.5815042,"['point_of_interest', 'establishment']"
A/B Samosvej 28,55.6786489,12.5810032,"['point_of_interest', 'establishment']"
Kong Hans Kælder,55.67886229999999,12.5840885,"['restaurant', 'food', 'point_of_interest', 'establishment']"
BOSS Shop,55.6794028,12.5805661,"['clothing_store', 'shoe_store', 'point_of_interest', 'store', 'establishment']"
Nespresso Boutique København,55.679948,12.582047,"['food', 'point_of_interest', 'store', 'establishment']"
Illums Bolighus,55.6788744,12.5786292,"['store', 'point_of_interest', 'establishment']"
Levi's® Amagertorv,55.678662,12.5786831,"['clothing_store', 'point_of_interest', 'store', 'establishment']"
Danske Bank,55.6785088,12.5853465,"['bank', 'finance', 'point_of_interest', 'establishment']"
Live in historic centre,55.6779552,12.582382,"['lodging', 'point_of_interest', 'establishment']"
L'etoile ApS,55.67924799999999,12.579246,"['point_of_interest', 'establishment']"
Sand Copenhagen,55.67948879999999,12.5817343,"['clothing_store', 'point_of_interest', 'store', 'establishment']"
Royal Copenhagen Flagship Store,55.67895799999999,12.57905,"['home_goods_store', 'point_of_interest', 'store', 'establishment']"
Thorvaldsens Museum,55.67674719999999,12.5783916,"['tourist_attraction', 'museum', 'point_of_interest', 'establishment']"
Café Norden,55.67891119999999,12.5799328,"['cafe', 'food', 'point_of_interest', 'establishment']"
The Dubliner,55.6786816,12.5789267,"['bar', 'restaurant', 'food', 'point_of_interest', 'establishment']"
Stork Fountain,55.67883560000001,12.579573,"['tourist_attraction', 'park', 'point_of_interest', 'establishment']"
Indre By,55.6800939,12.5800086,"['sublocality_level_2', 'sublocality', 'political']"
K-Bar,55.67791839999999,12.5807255,"['bar', 'point_of_interest', 'establishment']"
Summerbird Chocolaterie,55.6792223,12.5845921,"['food', 'point_of_interest', 'store', 'establishment']"
Ved Stranden 10,55.6773037,12.5816045,"['bar', 'liquor_store', 'food', 'point_of_interest', 'store', 'establishment']"
Humac,55.6792241,12.5834705,"['electronics_store', 'point_of_interest', 'store', 'establishment']"
"Nikolaj, Copenhagen Contemporary Art Center",55.678644,12.5815874,"['tourist_attraction', 'museum', 'point_of_interest', 'establishment']"
Stromma Canal Tours Copenhagen,55.6779744,12.5803712,"['travel_agency', 'point_of_interest', 'establishment']"
Georg Jensen,55.6789753,12.5793286,"['jewelry_store', 'point_of_interest', 'store', 'establishment']"
Birger Christensen,55.67953989999999,12.5819191,"['clothing_store', 'shoe_store', 'point_of_interest', 'store', 'establishment']"
Toga Vinstue,55.678769,12.580237,"['bar', 'point_of_interest', 'establishment']"
Cafe Europa,55.67866909999999,12.5793745,"['cafe', 'food', 'point_of_interest', 'establishment']"
Restaurant Maven,55.6784917,12.5816056,"['restaurant', 'bar', 'food', 'point_of_interest', 'establishment']"
Stender Strøget,55.67915439999999,12.5809949,"['hair_care', 'point_of_interest', 'establishment']"
Lån & Spar | Højbro Plads,55.678486,12.5802798,"['bank', 'finance', 'point_of_interest', 'establishment']"
Church of Holmen,55.6766342,12.5836016,"['church', 'tourist_attraction', 'place_of_worship', 'point_of_interest', 'establishment']"
Krogs Fiskerestaurant,55.67775719999999,12.5784942,"['restaurant', 'food', 'point_of_interest', 'establishment']"
Plaza Ure Og Smykker,55.67926550000001,12.5834299,"['jewelry_store', 'point_of_interest', 'store', 'establishment']"
Disney Store,55.6789077,12.5788581,"['point_of_interest', 'store', 'establishment']"
Peak Performance,55.6797868,12.582653,"['clothing_store', 'point_of_interest', 'store', 'establishment']"
Q-Park Magasin du Nord,55.6788983,12.5832245,"['parking', 'storage', 'point_of_interest', 'establishment']"
Tommy Hilfiger,55.6797712,12.5825944,"['clothing_store', 'point_of_interest', 'store', 'establishment']"
Foot Locker,55.67864609999999,12.5784163,"['shoe_store', 'point_of_interest', 'clothing_store', 'store', 'establishment']"
Mulberry,55.67998929999999,12.5836857,"['point_of_interest', 'clothing_store', 'store', 'establishment']"
Utroskab,55.6788161,12.5778511,"['point_of_interest', 'establishment']"
Guinness World Records Museum,55.6802207,12.5838497,"['museum', 'tourist_attraction', 'point_of_interest', 'establishment']"
Hviids Vinstue,55.6797944,12.5848278,"['bar', 'food', 'point_of_interest', 'establishment']"
McDonald's,55.679581,12.584783,"['restaurant', 'food', 'point_of_interest', 'establishment']"
Le Klint,55.6788328,12.5805919,"['home_goods_store', 'point_of_interest', 'store', 'establishment']"
Mads Nørgaard,55.6786773,12.5780985,"['point_of_interest', 'clothing_store', 'store', 'establishment']"
Kunst og Køkkentøj,55.6803487,12.5826881,"['book_store', 'furniture_store', 'home_goods_store', 'point_of_interest', 'store', 'establishment']"
Max Mara Copenhagen,55.678935,12.5788284,"['point_of_interest', 'clothing_store', 'store', 'establishment']"
Madklubben Grill,55.6803955,12.5805334,"['meal_takeaway', 'restaurant', 'food', 'point_of_interest', 'establishment']"
Heartbreak Model Management,55.6779691,12.5806994,"['point_of_interest', 'establishment']"
Max Mara,55.68009499999999,12.5840832,"['point_of_interest', 'clothing_store', 'store', 'establishment']"
Tommy Hilfiger,55.6793976,12.5848038,"['clothing_store', 'point_of_interest', 'store', 'establishment']"
Napcentre Europe ApS,55.6792562,12.5793439,"['point_of_interest', 'establishment']"
Poul Stig Briller,55.6799561,12.5830735,"['health', 'point_of_interest', 'store', 'establishment']"
Zirup,55.677903,12.57721,"['restaurant', 'food', 'point_of_interest', 'establishment']"
Nordisk Ministerråds Sekretariat / Nordic Council of Ministers,55.6777798,12.581036,"['point_of_interest', 'establishment']"
119,55.67989499999999,12.579242,"['clothing_store', 'point_of_interest', 'store', 'establishment']"
EDC Poul Erik Bech,55.67839840000001,12.5835678,"['real_estate_agency', 'finance', 'point_of_interest', 'establishment']"
LokalBolig Amager ApS,55.66621300000001,12.6124759,"['real_estate_agency', 'point_of_interest', 'establishment']"
Universal Bilpleje,55.6683426,12.6157191,"['car_wash', 'point_of_interest', 'establishment']"
Copenhagen Records,55.6676594,12.6126162,"['point_of_interest', 'establishment']"
Rejsebixen,55.666984,12.614779,"['travel_agency', 'point_of_interest', 'establishment']"
Whammy Bar,55.6656,12.613522,"['bar', 'point_of_interest', 'establishment']"
Københavns Politi. Eftersøgningsafdelingen,55.668122,12.6149,"['police', 'point_of_interest', 'establishment']"
CPHVVS,55.667767,12.612058,"['general_contractor', 'point_of_interest', 'establishment']"
Nørrebro Karate Club,55.666172,12.613622,"['health', 'point_of_interest', 'establishment']"
BIL,55.66635300000001,12.611063,"['point_of_interest', 'establishment']"
Mozz a/S,55.66790040000001,12.6131656,"['point_of_interest', 'establishment']"
Andyop v/Andreas Seebach,55.66748,12.614395,"['point_of_interest', 'establishment']"
Studio Jytte Høy,55.66799619999999,12.6134932,"['point_of_interest', 'establishment']"
Budo & Karate klubben Kokusai SougoBudo Renmei Danmark,55.6661935,12.6109127,"['health', 'point_of_interest', 'establishment']"
Sportexcel,55.667085,12.6121579,"['physiotherapist', 'health', 'point_of_interest', 'establishment']"
David Lewis Designers ApS,55.6677413,12.6131041,"['point_of_interest', 'establishment']"
Capoeira Senzala Amager,55.666051,12.613166,"['health', 'point_of_interest', 'establishment']"
Mismo Aps,55.66803960000001,12.6128404,"['point_of_interest', 'establishment']"
Piccolo Mondo,55.66650130000001,12.6127822,"['meal_takeaway', 'restaurant', 'food', 'point_of_interest', 'establishment']"
København S,55.6508754,12.5991891,"['sublocality_level_1', 'sublocality', 'political']"
Nordisk Brød,55.666456,12.612535,"['bakery', 'food', 'point_of_interest', 'store', 'establishment']"
Indian Ocean,55.666379,12.613323,"['restaurant', 'food', 'point_of_interest', 'establishment']"
Copenhagen Music,55.6676622,12.6130359,"['point_of_interest', 'establishment']"
KBHfotostudie,55.6676424,12.612632,"['point_of_interest', 'establishment']"
N & P ApS,55.666324,12.613064,"['point_of_interest', 'establishment']"
Mater A/S,55.667679,12.6128389,"['point_of_interest', 'establishment']"
Kbhfilm,55.667679,12.6128389,"['point_of_interest', 'establishment']"
Gunnar Madsen Smagelokale,55.6677006,12.6132144,"['store', 'point_of_interest', 'establishment']"
Brophy Bookings,55.667717,12.613065,"['point_of_interest', 'establishment']"
The Market v/Brian Johansen,55.6677413,12.6131041,"['point_of_interest', 'establishment']"
Guts & Glory ApS,55.666311,12.613492,"['point_of_interest', 'establishment']"
Holmbladet,55.6663429,12.6121267,"['bar', 'point_of_interest', 'establishment']"
Bs Distribution ApS,55.667795,12.61347,"['point_of_interest', 'establishment']"
California Sports ApS - Lager,55.66763989999999,12.6119695,"['point_of_interest', 'establishment']"
Elk Film Aps,55.667838,12.613553,"['point_of_interest', 'establishment']"
A/B Valentinergården,55.666224,12.612153,"['point_of_interest', 'establishment']"
Ahlstrand ApS,55.66795,12.613118,"['point_of_interest', 'establishment']"
Simon Ask Consulting v/Simon Ask Ulsnes,55.66667899999999,12.611394,"['point_of_interest', 'establishment']"
Burger House Pizza,55.666135,12.612223,"['restaurant', 'meal_delivery', 'meal_takeaway', 'food', 'point_of_interest', 'establishment']"
Gliese Entreprise A/S,55.667875,12.613811,"['home_goods_store', 'general_contractor', 'point_of_interest', 'store', 'establishment']"
Bicycle Innovation Lab,55.667106,12.611202,"['point_of_interest', 'establishment']"
Rue de Femme design office / showroom,55.667996,12.613493,"['point_of_interest', 'establishment']"
Angela Romero Communication,55.66627500000001,12.611675,"['point_of_interest', 'establishment']"
Andreas Emenius,55.666669,12.614782,"['point_of_interest', 'establishment']"
Soupanatural ApS,55.666704,12.61084,"['point_of_interest', 'establishment']"
Ledernes MødeCenter,55.6676898,12.6113756,"['point_of_interest', 'establishment']"
EGN,55.66814189999999,12.6135507,"['point_of_interest', 'establishment']"
Prismen,55.666447,12.6110159,"['point_of_interest', 'establishment']"
Protein Baker,55.66741,12.610727,"['point_of_interest', 'establishment']"
Fakta,55.66679969999999,12.6153817,"['supermarket', 'grocery_or_supermarket', 'food', 'point_of_interest', 'store', 'establishment']"
Canopy Sound I/S,55.66566599999999,12.612494,"['point_of_interest', 'establishment']"
Boligmægleren - Amager and Christianshavn,55.66594899999999,12.611423,"['real_estate_agency', 'point_of_interest', 'establishment']"
Pockz I/S,55.6663982,12.6152558,"['point_of_interest', 'establishment']"
AO Håndværkerbutik,55.6683171,12.6140159,"['point_of_interest', 'store', 'establishment']"
Kasper Winther Ambus,55.6657178,12.6141465,"['point_of_interest', 'establishment']"
Dahlquist Pejsecenter,55.6670928,12.6100903,"['home_goods_store', 'point_of_interest', 'store', 'establishment']"
Sanistål A/S,55.668122,12.6149,"['point_of_interest', 'establishment']"
Morten Thomsen,55.665454,12.612665,"['point_of_interest', 'establishment']"
Pink Wheels,55.66900090000001,12.6151888,"['car_rental', 'point_of_interest', 'establishment']"
Atlantic Båd- og Autosadelmagere ApS,55.66855839999999,12.611244,"['point_of_interest', 'establishment']"
Biludlejning & Forsikring,55.66900090000001,12.6151888,"['point_of_interest', 'establishment']"
IM Autoskadecenter ApS,55.66835829999999,12.6157931,"['car_repair', 'point_of_interest', 'establishment']"
Kb Skilte A/S -city Neon,55.668508,12.6167339,"['point_of_interest', 'store', 'establishment']"
Im Autolakering ApS,55.66853810000001,12.6157147,"['car_repair', 'point_of_interest', 'establishment']"
Stryhn Henning,55.66843100000001,12.616329,"['jewelry_store', 'point_of_interest', 'store', 'establishment']"
Den Selvejende Institution Børnehaven Tjørnerækken,55.66731,12.616512,"['school', 'point_of_interest', 'establishment']"
Firma Jan Wessel Petersen,55.66843100000001,12.616329,"['point_of_interest', 'establishment']"
GS Byg ApS,55.66836730000001,12.6152118,"['general_contractor', 'point_of_interest', 'establishment']"
Ejendomsselskabet Højbro A/S,55.6690238,12.6155477,"['point_of_interest', 'establishment']"
Michael Schultz Art Fabrication,55.66857109999999,12.6162981,"['point_of_interest', 'establishment']"
Salon Merrild,55.6672799,12.6166381,"['hair_care', 'point_of_interest', 'establishment']"
Kyhl Design Center ApS,55.66900090000001,12.6151888,"['point_of_interest', 'establishment']"
Amager Dækcenter,55.6687592,12.6176882,"['car_repair', 'point_of_interest', 'store', 'establishment']"
Hernovs Forlag,55.66871699999999,12.61303,"['point_of_interest', 'establishment']"
City Space ApS,55.66871699999999,12.61303,"['real_estate_agency', 'point_of_interest', 'establishment']"
Janus Høm Production,55.66871699999999,12.61303,"['point_of_interest', 'establishment']"
FLYTTEKASSER.NU,55.66868900000001,12.612455,"['point_of_interest', 'establishment']"
Effekt Holding ApS,55.66868900000001,12.612455,"['point_of_interest', 'establishment']"
Nh Productions,55.667471,12.615938,"['point_of_interest', 'establishment']"
Quantum sails copenhagen,55.6691217,12.6148008,"['point_of_interest', 'establishment']"
KiteDanmark,55.6690836,12.614998,"['point_of_interest', 'store', 'establishment']"
Katrine Kanstrup,55.66843100000001,12.616329,"['point_of_interest', 'establishment']"
Aabille Group v/Jesper Aabille,55.66843100000001,12.616329,"['point_of_interest', 'establishment']"
Blyme Brolægning & Entreprise,55.66692399999999,12.615887,"['park', 'general_contractor', 'point_of_interest', 'establishment']"
Avii,55.666946,12.616048,"['clothing_store', 'point_of_interest', 'store', 'establishment']"
Eapn.Dk,55.66712769999999,12.6174675,"['point_of_interest', 'establishment']"
Mh Entreprise v/Martin Hansen,55.667598,12.616824,"['point_of_interest', 'establishment']"
Praque Studios,55.668508,12.6167339,"['point_of_interest', 'establishment']"
Designsmeden /V Jari Paivinen,55.668508,12.6167339,"['point_of_interest', 'establishment']"
DataKons IT and Financial Management Ltd.,55.667025,12.616406,"['accounting', 'finance', 'point_of_interest', 'establishment']"
Ny Bremenshus,55.666834,12.615895,"['point_of_interest', 'establishment']"
Designsmeden ApS,55.66853140000001,12.6170213,"['point_of_interest', 'establishment']"
De Fedtede Fingre Garage,55.66880699999999,12.6167578,"['car_repair', 'point_of_interest', 'establishment']"
Groupm Denmark,55.6678142,12.6187678,"['point_of_interest', 'establishment']"
Maersk Tankers,55.6678919,12.6192858,"['point_of_interest', 'establishment']"
Kraftvaerk Foodtech ApS,55.66829769999999,12.6180536,"['point_of_interest', 'establishment']"
Ogilvy Danmark,55.66833409999999,12.6183539,"['point_of_interest', 'establishment']"
Dyrberg/Kern Denmark,55.66833409999999,12.6183539,"['jewelry_store', 'point_of_interest', 'store', 'establishment']"
Kraftvaerk Group A/S,55.6683666,12.6185275,"['point_of_interest', 'establishment']"
Vicuras,55.66832419999999,12.6190851,"['health', 'point_of_interest', 'establishment']"
Flyhjelp,55.6678142,12.6187678,"['point_of_interest', 'establishment']"
Computerpeople,55.66753629999999,12.6190882,"['point_of_interest', 'establishment']"
Siteworks ApS | Webbureau,55.66753629999999,12.6190882,"['point_of_interest', 'establishment']"
Ejendommen Strandlodsvej 42 ApS,55.66753629999999,12.6190882,"['point_of_interest', 'establishment']"
Waimea Digital | Webbureau & Marketing konsulent,55.66753629999999,12.6190882,"['point_of_interest', 'establishment']"
Ombold,55.66712769999999,12.6174674,"['point_of_interest', 'establishment']"
Himmelblå,55.66712769999999,12.6174674,"['cafe', 'food', 'point_of_interest', 'establishment']"
Concept Nord ApS,55.66747720000001,12.6191489,"['point_of_interest', 'establishment']"
Orango A/S,55.66747720000001,12.6191489,"['point_of_interest', 'establishment']"
Skovdal Nordic ApS,55.66747720000001,12.6191489,"['point_of_interest', 'establishment']"
PK Medier,55.66747720000001,12.6191489,"['point_of_interest', 'establishment']"
Telia Kundeservice og hovedkontor,55.66819570000001,12.6202955,"['point_of_interest', 'establishment']"
Fotograf Torben Eskerod,55.667633,12.6195799,"['point_of_interest', 'establishment']"
G.S. Store Aps,55.667633,12.6195799,"['point_of_interest', 'establishment']"
Cms Group I/S,55.667633,12.6195799,"['point_of_interest', 'establishment']"
Graphisoft Danmark,55.6676213,12.6195682,"['point_of_interest', 'establishment']"
Brødrene Dahl København S,55.6671384,12.618588,"['point_of_interest', 'establishment']"
Bjarni B. Jacobsen Photograph,55.6675772,12.6197149,"['point_of_interest', 'establishment']"
Håndværker.dk A/S,55.66757080000001,12.6197194,"['point_of_interest', 'establishment']"
Sodexo A/S,55.6682991,12.6205302,"['restaurant', 'food', 'point_of_interest', 'establishment']"
ILP3D / LoveMyHome,55.6677145,12.6201274,"['point_of_interest', 'establishment']"
Tilts Communications A/S,55.66825840000001,12.620619,"['point_of_interest', 'establishment']"
Och International A/S,55.66825840000001,12.620619,"['point_of_interest', 'establishment']"
Sundby Boldklubs Venner,55.670314,12.620146,"['point_of_interest', 'establishment']"
Aarslev Polymere Industri A/S,55.667519,12.62011,"['point_of_interest', 'establishment']"
Adina Apartment Hotel Copenhagen,55.6980397,12.5936662,"['lodging', 'point_of_interest', 'establishment']"
Frihavnskirken,55.698861,12.5885095,"['church', 'place_of_worship', 'point_of_interest', 'establishment']"
Kashmir Indisk Restaurant,55.6989131,12.5873494,"['meal_takeaway', 'restaurant', 'food', 'point_of_interest', 'establishment']"
Nordisk Kollegium,55.6994695,12.5912883,"['university', 'point_of_interest', 'establishment']"
HHR Electrical Engineering,55.6980077,12.5903365,"['electrician', 'point_of_interest', 'establishment']"
Jobnext ApS,55.69939899999999,12.589067,"['point_of_interest', 'establishment']"
Salon Lykke,55.6993657,12.5880572,"['hair_care', 'point_of_interest', 'establishment']"
Classens Have,55.69781769999999,12.5889375,"['tourist_attraction', 'park', 'point_of_interest', 'establishment']"
Fabians Snedkeri,55.699633,12.588754,"['point_of_interest', 'establishment']"
Boligselskabet Ved Classens Have,55.698002,12.587633,"['point_of_interest', 'establishment']"
Heister Bodil (Musiker),55.7003563,12.589977,"['point_of_interest', 'establishment']"
Committee for Health Information,55.6991711,12.5914095,"['health', 'point_of_interest', 'establishment']"
Advokatanpartsselskabet Mads Schierbeck,55.699549,12.591325,"['lawyer', 'point_of_interest', 'establishment']"
Nesto.DK ApS,55.69921999999999,12.5899693,"['beauty_salon', 'point_of_interest', 'establishment']"
Øbro Kunsthandel,55.7000562,12.5895669,"['home_goods_store', 'point_of_interest', 'store', 'establishment']"
Ejendomsinteressentskabet af 1.8.1991,55.699549,12.591325,"['point_of_interest', 'establishment']"
www.BusyBeeManager.com,55.700832,12.590185,"['point_of_interest', 'establishment']"
Lene Wolters,55.6975373,12.5903516,"['jewelry_store', 'point_of_interest', 'store', 'establishment']"
Nester Ivan,55.69939899999999,12.589067,"['point_of_interest', 'establishment']"
Karg,55.70028349999999,12.5893459,"['point_of_interest', 'establishment']"
Refsgaard Consulting ApS,55.69903799999999,12.5900389,"['point_of_interest', 'establishment']"
Adorn Tapet & Farvehandel,55.698261,12.587099,"['home_goods_store', 'point_of_interest', 'store', 'establishment']"
High Care Center,55.6992571,12.590036,"['health', 'point_of_interest', 'establishment']"
Wiinstedt,55.6985755,12.5901498,"['home_goods_store', 'point_of_interest', 'store', 'establishment']"
Nordstroem Consulting,55.6988048,12.5909503,"['point_of_interest', 'establishment']"
Møbleriet,55.6984159,12.5902377,"['point_of_interest', 'establishment']"
Streetsoccerkbh.DK,55.69863429999999,12.5890818,"['point_of_interest', 'establishment']"
Lone Enemark,55.699482,12.589313,"['point_of_interest', 'establishment']"
Dansk-Ukrainsk Selskab,55.69939899999999,12.589067,"['point_of_interest', 'establishment']"
Mymultibox ApS,55.699675,12.589777,"['point_of_interest', 'establishment']"
Robusthed,55.699154,12.5912923,"['health', 'point_of_interest', 'establishment']"
Fodboldskolen,55.69856240000001,12.5888155,"['point_of_interest', 'establishment']"
Sandbye Rikke,55.69884500000001,12.59142,"['point_of_interest', 'establishment']"
Arvato Finance A/S,55.6993495,12.5913466,"['finance', 'point_of_interest', 'establishment']"
Bramsnæs Designlab v/ Thomas Bramsnæs,55.6975962,12.5903172,"['point_of_interest', 'establishment']"
Nordentoft Pro ApS,55.6986709,12.5885958,"['point_of_interest', 'establishment']"
Team4search ApS,55.698583,12.5914439,"['point_of_interest', 'establishment']"
Meyer Data,55.698583,12.5914439,"['point_of_interest', 'establishment']"
Cosmobody v/Anna Mette Brandt,55.698583,12.591444,"['health', 'point_of_interest', 'establishment']"
Kitchen & Home (Administration),55.698583,12.5914439,"['furniture_store', 'home_goods_store', 'point_of_interest', 'store', 'establishment']"
Secret Stockings v/Helle Kaarsberg Hammer,55.69824149999999,12.5909728,"['point_of_interest', 'establishment']"
Erik Agner,55.69831909999999,12.5888706,"['point_of_interest', 'establishment']"
Den Sui Aikido Dojo,55.699549,12.591325,"['gym', 'health', 'point_of_interest', 'establishment']"
Advokatfirmaet Theut ApS,55.699549,12.591325,"['point_of_interest', 'establishment']"
W.T. Center ApS,55.699549,12.591325,"['point_of_interest', 'establishment']"
Advokatanpartsselskabet Henning Biil,55.699549,12.591325,"['point_of_interest', 'establishment']"
Marna Rix,55.69984720000001,12.5906595,"['point_of_interest', 'establishment']"
Mentor Security ApS,55.69984720000001,12.5906595,"['point_of_interest', 'establishment']"
Sam Shimoun,55.699968,12.589278,"['point_of_interest', 'establishment']"
Modern Lamps,55.69791499999999,12.590337,"['furniture_store', 'home_goods_store', 'point_of_interest', 'store', 'establishment']"
Louise Worm,55.6992397,12.5881551,"['point_of_interest', 'establishment']"
Malerfirmaet v/Frank Jeppsson,55.69841590000001,12.5882248,"['painter', 'point_of_interest', 'establishment']"
LejAnlæg.dk,55.6982414,12.5916007,"['food', 'point_of_interest', 'establishment']"
Regn Med Mere,55.69943689999999,12.5880007,"['accounting', 'finance', 'point_of_interest', 'establishment']"
Pharm-Assist v/Peter Richardt Hansen,55.698014,12.591535,"['point_of_interest', 'establishment']"
Den Selvejende Institution Willemoesgård,55.69998539999999,12.5913169,"['point_of_interest', 'establishment']"
Jan Huus,55.69884099999999,12.587806,"['point_of_interest', 'establishment']"
Heidi Borg v/Heidi Borg Jensen,55.69784980000001,12.5910082,"['point_of_interest', 'establishment']"
Plesner,55.7006421,12.5942108,"['lawyer', 'point_of_interest', 'establishment']"
Pumpestationen Fritidsklub,55.7011735,12.590561,"['point_of_interest', 'establishment']"
Rosenvang,55.70097060000001,12.589941,"['school', 'point_of_interest', 'establishment']"
Marianne Østerberg Nygaard,55.700351,12.588183,"['point_of_interest', 'establishment']"
Artist- Og Teaterskolen af 1978,55.7009945,12.5897342,"['point_of_interest', 'establishment']"
Sebastian Lind,55.700463,12.588671,"['point_of_interest', 'establishment']"
Ann Jeppesen Psykologisk Rådgivning,55.7001506,12.5874788,"['health', 'point_of_interest', 'establishment']"
Stenbæk & Theilgaard ApS,55.7004254,12.5902388,"['point_of_interest', 'establishment']"
Indsigt Udtryk v/Inge Kjeldsen,55.700691,12.58979,"['point_of_interest', 'establishment']"
Eir Sciences ApS,55.70055699999999,12.5891249,"['point_of_interest', 'establishment']"
Girl-Talk v/Camilla Henriksen,55.700535,12.588964,"['point_of_interest', 'establishment']"
La Lumiere Du Nord,55.7006964,12.5885713,"['point_of_interest', 'establishment']"
Kunstmaler Gunleif Grube,55.69994,12.588097,"['point_of_interest', 'establishment']"
Rederiet A P Møller A/S,55.69971100000001,12.592853,"['point_of_interest', 'establishment']"
Reality Lag I/S,55.70065899999999,12.588402,"['point_of_interest', 'establishment']"
By Bjorholm v/Lise Bjorholm Pedersen,55.700288,12.587874,"['point_of_interest', 'establishment']"
S/I Pumpestationen,55.701194,12.590728,"['point_of_interest', 'establishment']"
Schewizerkniven,55.6994924,12.587236,"['point_of_interest', 'establishment']"
maⁿ copenhagen,55.70021699999999,12.5875489,"['point_of_interest', 'establishment']"
Panorama v/Torben Hansen,55.7003137,12.587475,"['point_of_interest', 'establishment']"
Spin27 I/S,55.69926359999999,12.5877195,"['point_of_interest', 'establishment']"
No 1 Domus Portus Selskabslokale & Event,55.7027711,12.5908858,"['point_of_interest', 'establishment']"
SIMTANDA,55.701835,12.589083,"['point_of_interest', 'establishment']"
Zapolski Strygerne,55.700826,12.587335,"['point_of_interest', 'establishment']"
Gluino,55.70185499999999,12.589755,"['point_of_interest', 'establishment']"
Fsb Afdeling Haunstrupgård I (1-18),55.7020505,12.5888458,"['point_of_interest', 'establishment']"
Alfa-1 Danmark,55.702365,12.5877925,"['point_of_interest', 'establishment']"
Brandvæsnets Idrætsforening,55.7015189,12.5909808,"['point_of_interest', 'establishment']"
School on Strandboulevarden,55.702428,12.58788,"['primary_school', 'school', 'point_of_interest', 'establishment']"
Kolds Regnskab v/Jette Kold Petersen,55.70247800000001,12.5895604,"['point_of_interest', 'establishment']"
Livarosa ApS,55.702528,12.5890873,"['point_of_interest', 'establishment']"
Wedoart v/Stefan Patrick Rudberg,55.700078,12.586756,"['point_of_interest', 'establishment']"
Safe Children v/Rikke Ludvigsen,55.69971869999999,12.5872309,"['point_of_interest', 'establishment']"
Studenterforum,55.702428,12.58788,"['point_of_interest', 'establishment']"
Familiedialog ApS,55.69971869999999,12.5872309,"['point_of_interest', 'establishment']"
Hd.DK v/Kim Erik Jensen,55.69971869999999,12.5872309,"['point_of_interest', 'establishment']"
WebmindIT,55.69971870000001,12.5872308,"['point_of_interest', 'establishment']"
Sunddialog ApS,55.69971869999999,12.5872309,"['point_of_interest', 'establishment']"
Aristella,55.7010588,12.5861461,"['point_of_interest', 'establishment']"
Rosenmunthe,55.7026529,12.589477,"['point_of_interest', 'establishment']"
Bauen Aps,55.70117,12.586013,"['point_of_interest', 'establishment']"
E/F Marstalsgade 34-36 v/Steen Slott,55.703934,12.58926,"['point_of_interest', 'establishment']"
Soka Gakkai International - Danmark,55.70200059999999,12.5845305,"['point_of_interest', 'establishment']"
Sushi One,55.7031214,12.5859885,"['meal_takeaway', 'restaurant', 'food', 'point_of_interest', 'establishment']"
home Østerbro,55.70339689999999,12.5858456,"['real_estate_agency', 'point_of_interest', 'establishment']"
Frisør Hom,55.7032409,12.5868535,"['hair_care', 'point_of_interest', 'establishment']"
Laugesen Martin Sibast,55.7032852,12.5874042,"['point_of_interest', 'establishment']"
Andelsboligforeningen Nordre Frihavnsgade 96,55.70345699999999,12.58928,"['point_of_interest', 'establishment']"
Jl Group - Sales / Display Ltd.,55.7027458,12.590818,"['point_of_interest', 'store', 'establishment']"
Smag,55.70299039999999,12.5907805,"['point_of_interest', 'establishment']"
Formfill,55.7034951,12.5873147,"['point_of_interest', 'establishment']"
Scalar Media I/S,55.7032852,12.5874042,"['point_of_interest', 'establishment']"
København Ø,55.7096303,12.5768655,"['sublocality_level_1', 'sublocality', 'political']"
RealMæglerne Østerbro ApS - Ejendomsmægler,55.70345699999999,12.586662,"['real_estate_agency', 'point_of_interest', 'establishment']"
CG Træning og Ernæring,55.7034481,12.5894637,"['health', 'point_of_interest', 'establishment']"
Lodret,55.70313549999999,12.5894161,"['point_of_interest', 'establishment']"
Kys & Kram,55.70325030000001,12.5870035,"['point_of_interest', 'clothing_store', 'store', 'establishment']"
Gerbera Flowers,55.7031661,12.5860975,"['florist', 'point_of_interest', 'store', 'establishment']"
Børnelungefonden,55.70257460000001,12.5864126,"['point_of_interest', 'establishment']"
Dansk Landsforening For Hals- og Mundhuleopererede,55.70257460000001,12.5864126,"['point_of_interest', 'establishment']"
Danish Cancer Society Research Center,55.7026204,12.5863402,"['point_of_interest', 'establishment']"
Ragnvald Blach & Hustrus Mindefond,55.70255,12.586171,"['point_of_interest', 'establishment']"
Fællesfonden Til Støtte For Kampen Mod Kræften (399),55.70255,12.586171,"['point_of_interest', 'establishment']"
Københavns Universitets Symfoniorkester SymfUni,55.70311379999999,12.589073,"['point_of_interest', 'establishment']"
C Partners ApS,55.70284669999999,12.5897368,"['point_of_interest', 'establishment']"
eee crowd,55.70293059999999,12.5896174,"['point_of_interest', 'establishment']"
Smj Consult ApS,55.703307,12.588263,"['point_of_interest', 'establishment']"
Abbits,55.703307,12.588263,"['point_of_interest', 'establishment']"
Sam's Shop,55.7033028,12.5876338,"['food', 'point_of_interest', 'store', 'establishment']"
Msl Absorbent Products ApS,55.7032852,12.5874042,"['point_of_interest', 'establishment']"
Johan David Illum Von Platen-Hallermund Rosenmunthe,55.70313549999999,12.5894161,"['point_of_interest', 'establishment']"
Anello,55.70322280000001,12.5866696,"['point_of_interest', 'establishment']"
Billy's Barber Shop,55.7031757,12.5864726,"['hair_care', 'health', 'point_of_interest', 'establishment']"
Euro Asian Madhus,55.7031522,12.5864109,"['meal_takeaway', 'restaurant', 'food', 'point_of_interest', 'establishment']"
Sun-Up,55.70347729999999,12.5869448,"['point_of_interest', 'establishment']"
Perfect Nails,55.70347729999999,12.5869448,"['beauty_salon', 'point_of_interest', 'establishment']"
Datakraft v/Tom Thuneby,55.70358299999999,12.5883679,"['point_of_interest', 'establishment']"
Charlottehaven,55.7053906,12.5885268,"['lodging', 'restaurant', 'food', 'gym', 'health', 'point_of_interest', 'establishment']"
Chevy's,55.7037463,12.5901164,"['bar', 'food', 'point_of_interest', 'establishment']"
Andelsboligforeningen Nordre Frihavnsgade 101,55.703805,12.590617,"['point_of_interest', 'establishment']"
Rygestop,55.7035711,12.585898,"['health', 'point_of_interest', 'establishment']"
Shinhypnose.DK v/Mads Aggerholm Munch,55.7035338,12.5857202,"['health', 'point_of_interest', 'establishment']"
Salon Græsborg,55.70404009999999,12.587241,"['hair_care', 'point_of_interest', 'establishment']"
Kasper Andersen Film,55.70373939999999,12.5870515,"['point_of_interest', 'establishment']"
Dermalounge v/Jeanette Bettina Albertsen,55.7033694,12.5861787,"['health', 'point_of_interest', 'establishment']"
Michael Bjelke,55.703983,12.589758,"['point_of_interest', 'establishment']"
Dansk Pilot Forenings Autoforsikringsklub F.m.b.a,55.7035807,12.5874805,"['insurance_agency', 'point_of_interest', 'establishment']"
Camilla Utke Schiøler,55.70345699999999,12.58928,"['point_of_interest', 'establishment']"
Snedker Christian Rosentoft,55.70357629999999,12.5907755,"['point_of_interest', 'establishment']"
Sing'in Body,55.70417769999999,12.5871284,"['point_of_interest', 'establishment']"
Casiopaia,55.7034331,12.5863951,"['health', 'point_of_interest', 'establishment']"
E/F Bremensgade 7-45,55.666295,12.616163,"['point_of_interest', 'establishment']"
Hotel D'Angleterre,55.6806838,12.584614,"['spa', 'lodging', 'bar', 'restaurant', 'food', 'point_of_interest', 'establishment']"
CasaShop,55.6813063,12.5814945,"['furniture_store', 'home_goods_store', 'point_of_interest', 'store', 'establishment']"
Wood Wood Copenhagen,55.68099900000001,12.58208,"['clothing_store', 'shoe_store', 'point_of_interest', 'store', 'establishment']"
Café Victor,55.68069289999999,12.5832463,"['bar', 'restaurant', 'food', 'point_of_interest', 'establishment']"
Charlie's Bar,55.6806817,12.5802734,"['bar', 'point_of_interest', 'establishment']"
La Vecchia Signora,55.6809327,12.5825617,"['restaurant', 'food', 'point_of_interest', 'establishment']"
Christian Louboutin,55.6808128,12.5821077,"['shoe_store', 'point_of_interest', 'store', 'establishment']"
Royal Danish Theatre,55.6794587,12.5862154,"['point_of_interest', 'establishment']"
Georg Jensen Damask,55.68056039999999,12.5805966,"['point_of_interest', 'establishment']"
l’Alsace,55.680751,12.582901,"['restaurant', 'food', 'point_of_interest', 'establishment']"
42Raw,55.6806898,12.5805104,"['restaurant', 'cafe', 'food', 'point_of_interest', 'store', 'establishment']"
LA Tequila Bar - København,55.681265,12.581069,"['bar', 'point_of_interest', 'establishment']"
Storm - Design Art Fashion,55.681451,12.581378,"['clothing_store', 'shoe_store', 'jewelry_store', 'point_of_interest', 'store', 'establishment']"
IO Interactive,55.6811533,12.5818739,"['point_of_interest', 'establishment']"
A.C. Perchs Thehandel,55.680676,12.578936,"['cafe', 'food', 'point_of_interest', 'store', 'establishment']"
Ejerforeningen Irlandsvej 5 A & 5 B,55.679733,12.577397,"['point_of_interest', 'establishment']"
Gosuman ApS,55.6812108,12.5788835,"['point_of_interest', 'establishment']"
ScubaGear,55.667082,12.621486,"['point_of_interest', 'clothing_store', 'store', 'establishment']"
Fuglsang Niels Arkitekter ApS,55.66888429999999,12.6221963,"['point_of_interest', 'establishment']"
Acs Holding ApS,55.669072,12.622911,"['point_of_interest', 'establishment']"
New Creations,55.668837,12.6116891,"['point_of_interest', 'establishment']"
Eddy Media,55.66941509999999,12.6115598,"['point_of_interest', 'establishment']"
Autotank A/S,55.66904839999999,12.6110481,"['point_of_interest', 'establishment']"
Kompleet Bygning & Inventar A/S,55.6694212,12.6107087,"['general_contractor', 'point_of_interest', 'establishment']"
John Bendtsen Holding ApS,55.6690248,12.6107289,"['point_of_interest', 'establishment']"
Impact,55.6690359,12.6111111,"['point_of_interest', 'establishment']"
Continental Ejendomme,55.66904839999999,12.6110481,"['point_of_interest', 'establishment']"
One to one,55.6690659,12.6110548,"['point_of_interest', 'establishment']"
Nfl Holding ApS,55.66904839999999,12.6110481,"['point_of_interest', 'establishment']"
Claus Bjarrum A / S,55.6694212,12.6107087,"['point_of_interest', 'establishment']"
Great Dane Communication ApS,55.66904839999999,12.6110481,"['point_of_interest', 'establishment']"
Relate ApS,55.66904839999999,12.611048,"['point_of_interest', 'establishment']"
Socialeer Group,55.66904839999999,12.6110481,"['point_of_interest', 'establishment']"
Atlantic Spa ApS,55.6686288,12.6111136,"['point_of_interest', 'establishment']"
WERK Arkitekter,55.6691496,12.6106993,"['point_of_interest', 'establishment']"
Over Byen Arkitekter,55.669373,12.610709,"['point_of_interest', 'establishment']"
REC Watches,55.6694212,12.6107087,"['point_of_interest', 'establishment']"
Core Arkitekter A/S,55.6694212,12.6107086,"['point_of_interest', 'establishment']"
Silo Furniture ApS,55.6694212,12.6107086,"['furniture_store', 'home_goods_store', 'point_of_interest', 'store', 'establishment']"
Spot Installation A/S,55.6694113,12.6105751,"['point_of_interest', 'establishment']"
Ledernes KompetenceCenter,55.66780190000001,12.6100909,"['point_of_interest', 'establishment']"
Ledernes Arbejdsløshedskasse Uddannelsesgodtgørelse Over 25 År,55.66786200000001,12.6094359,"['point_of_interest', 'establishment']"
Baan Thai Wellness,55.7072319,12.5862286,"['point_of_interest', 'establishment']"
Opus-Team Indre By & Østerbro,55.70660549999999,12.5865408,"['health', 'point_of_interest', 'establishment']"
Kandrups Bogtrykkeri A / S,55.7065505,12.5851645,"['point_of_interest', 'store', 'establishment']"
Broernes VVS,55.70742320000001,12.5828989,"['general_contractor', 'point_of_interest', 'establishment']"
Københavns Ejendomsadministration V/michael Bertelsen,55.70748829999999,12.5874221,"['point_of_interest', 'establishment']"
Copenhagen Academy of Fashion Design,55.7063891,12.5852354,"['point_of_interest', 'establishment']"
Blue Planet Sailing,55.70714719999999,12.5856163,"['point_of_interest', 'establishment']"
Re-bag A/S,55.7065505,12.5851645,"['museum', 'point_of_interest', 'establishment']"
Fsb Afdeling Pia Hus (1-96),55.70568799999999,12.5852489,"['point_of_interest', 'establishment']"
Maler-FJ.dk,55.70718899999999,12.588953,"['painter', 'point_of_interest', 'establishment']"
Copha V/rolf Eriksen,55.7065505,12.5851645,"['point_of_interest', 'store', 'establishment']"
Kasper Life Coaching,55.7062233,12.5873731,"['health', 'point_of_interest', 'establishment']"
SIGNAL architects,55.7065505,12.5851645,"['point_of_interest', 'establishment']"
Fritidshjemmet,55.70580340000001,12.5842593,"['point_of_interest', 'establishment']"
Det Danske Spiritus Kompagni A/S,55.7065505,12.5851645,"['point_of_interest', 'establishment']"
De Lokale Ugeaviser ApS,55.7063193,12.5859249,"['point_of_interest', 'establishment']"
DPH,55.708514,12.5876099,"['health', 'point_of_interest', 'establishment']"
Ejerforeningen Silkeborg,55.7078791,12.5848995,"['point_of_interest', 'establishment']"
Helle Hundahl,55.70729669999999,12.585185,"['health', 'point_of_interest', 'establishment']"
Euroballoon,55.7077965,12.5832968,"['home_goods_store', 'point_of_interest', 'store', 'establishment']"
Heidi Saatterup Indretning v/ Heidi Saatterup Pedersen,55.7067596,12.5841663,"['point_of_interest', 'establishment']"
Tankevirksomheden A/S,55.7073094,12.5871111,"['point_of_interest', 'establishment']"
Storms Distributions Service ApS,55.7071312,12.5867841,"['point_of_interest', 'establishment']"
Ankjær-Jensen Statsautoriserede Revisorer A/S,55.7065505,12.5851645,"['point_of_interest', 'establishment']"
Greenhair by Julie v/Julie Nielsen,55.70826880000001,12.5857938,"['hair_care', 'point_of_interest', 'establishment']"
A/S Hjem Fritidshjem,55.7061516,12.583315,"['point_of_interest', 'establishment']"
Casatina ApS,55.70678670000001,12.5850905,"['furniture_store', 'home_goods_store', 'point_of_interest', 'store', 'establishment']"
Øbro Motion,55.7075,12.5878669,"['point_of_interest', 'establishment']"
Dansk El-Service A/S,55.7074251,12.5826891,"['electrician', 'point_of_interest', 'establishment']"
Ejerforeningen Firkanten,55.707875,12.583936,"['point_of_interest', 'establishment']"
Fernando Massino,55.70621790000001,12.5880615,"['point_of_interest', 'establishment']"
Ejerforeningen Marstrand,55.70713620000001,12.5862484,"['point_of_interest', 'establishment']"
Nordens - finanshuset for selvstændige,55.7071967,12.5862469,"['finance', 'point_of_interest', 'establishment']"
Franky's Frisør & Barbershop,55.7068041,12.585315,"['hair_care', 'health', 'point_of_interest', 'establishment']"
Frabit ApS,55.7074404,12.5861091,"['point_of_interest', 'establishment']"
Region Hovedstaden,55.7066586,12.5866025,"['local_government_office', 'point_of_interest', 'establishment']"
Make,55.7065505,12.5851646,"['point_of_interest', 'establishment']"
Tusnelda Bloch Design ApS Under Konkurs,55.7065505,12.5851645,"['point_of_interest', 'establishment']"
Nordic Insurance Software A / S,55.7065505,12.5851645,"['point_of_interest', 'establishment']"
Parken's Fysioterapi,55.7065505,12.5851645,"['physiotherapist', 'health', 'point_of_interest', 'establishment']"
Just Drinks A/S,55.7065505,12.5851645,"['bar', 'point_of_interest', 'establishment']"
Darscare A/S,55.7065505,12.5851645,"['point_of_interest', 'establishment']"
Nordic Finance Group,55.7065505,12.5851645,"['point_of_interest', 'establishment']"
Copenhagen Fortuna Company A/S,55.7065505,12.5851645,"['point_of_interest', 'establishment']"
Karberghus A/S,55.7065505,12.5851645,"['point_of_interest', 'establishment']"
Hanne og Flemming Karbergs Fond,55.7065505,12.5851645,"['point_of_interest', 'establishment']"
Mesterskud,55.7064886,12.5852209,"['point_of_interest', 'establishment']"
Saxo.com A/S,55.7063193,12.5859249,"['book_store', 'point_of_interest', 'store', 'establishment']"
Dades a/S,55.706366,12.586664,"['point_of_interest', 'establishment']"
ConsensusOnline,55.7063743,12.58523,"['point_of_interest', 'establishment']"
Pure Senses,55.7063743,12.58523,"['health', 'point_of_interest', 'establishment']"
Mobtimizers Aps,55.7063563,12.5852536,"['point_of_interest', 'establishment']"
Gårdlauget Strandengen,55.7074065,12.587065,"['point_of_interest', 'establishment']"
Andelsboligforeningen Rolighedsvej 19-19 A,55.7074065,12.587065,"['point_of_interest', 'establishment']"
Ef. Strandboulevarden 66,55.7074065,12.587065,"['point_of_interest', 'establishment']"
A/B Carl Plougsvej 10 & Forchhammersvej 11,55.7074065,12.587065,"['point_of_interest', 'establishment']"
Ef. Ndr. Frihavnsgade 61,55.7074065,12.587065,"['point_of_interest', 'establishment']"
Østbanegade ApS,55.709791,12.587313,"['point_of_interest', 'establishment']"
Hover Collection,55.7089738,12.5838891,"['general_contractor', 'point_of_interest', 'establishment']"
Scanparkering,55.7087502,12.5864946,"['parking', 'point_of_interest', 'establishment']"
Hoey Consulting v/Thomas Høy,55.7085466,12.5848439,"['point_of_interest', 'establishment']"
KON-ZEPT physiotherapy by Michael Jørgensen,55.7096172,12.5855707,"['physiotherapist', 'health', 'point_of_interest', 'establishment']"
Foreningen Til Støtte For Mødre Og Børn,55.70832679999999,12.5829196,"['point_of_interest', 'establishment']"
Brødrene Dahl København Ø,55.70938109999999,12.5853829,"['point_of_interest', 'establishment']"
Larsen Susanne Birk (Fysioterapeut),55.7071825,12.5825693,"['health', 'point_of_interest', 'establishment']"
For Holding Up The Trousers v/Morten Vestergaard Kristensen,55.70920100000001,12.586256,"['point_of_interest', 'store', 'establishment']"
WeSecure ApS.,55.707714,12.583684,"['locksmith', 'point_of_interest', 'establishment']"
Tobias Harboe Holding,55.7083679,12.5849389,"['point_of_interest', 'establishment']"
AB Holbækgården,55.7078795,12.5822707,"['point_of_interest', 'establishment']"
LejDJ.dk,55.708102,12.584196,"['point_of_interest', 'establishment']"
Cph Catering,55.7085466,12.5848439,"['food', 'point_of_interest', 'establishment']"
Pif Paf Puf,55.7078757,12.5859413,"['point_of_interest', 'clothing_store', 'store', 'establishment']"
Gert Petersen-Selskabet,55.7077805,12.585941,"['point_of_interest', 'establishment']"
Placementlink,55.70848299999999,12.584374,"['travel_agency', 'point_of_interest', 'establishment']"
Carsten Stig Poulsen ApS,55.708547,12.585574,"['point_of_interest', 'establishment']"
Cyberkeel ApS,55.7087066,12.5847641,"['point_of_interest', 'establishment']"
Holk & Lassenius ApS,55.7081567,12.5862876,"['point_of_interest', 'establishment']"
Thim Rohde,55.70789300000001,12.5863614,"['point_of_interest', 'establishment']"
Presskorn Consult v/Ole Presskorn,55.708748,12.585481,"['point_of_interest', 'establishment']"
Fotograf Daniel Navarro,55.708644,12.584102,"['point_of_interest', 'establishment']"
SaiphAdventures.dk,55.7082661,12.5834173,"['point_of_interest', 'store', 'establishment']"
Itopix I/S v/Peter Rahbek og Kirsten Rahbek,55.7082663,12.583409,"['point_of_interest', 'establishment']"
EU Group Aps,55.7078682,12.5833149,"['point_of_interest', 'establishment']"
Lorentzen Film ApS,55.7070219,12.5846302,"['point_of_interest', 'establishment']"
Østerbro Dyreklinik,55.70897799999999,12.584261,"['veterinary_care', 'point_of_interest', 'store', 'establishment']"
Kjær København ApS,55.709072,12.585766,"['point_of_interest', 'establishment']"
Sankta Ólavs Kirkjulid,55.7077362,12.5869852,"['church', 'place_of_worship', 'point_of_interest', 'establishment']"
Maicleanview,55.7070787,12.5837978,"['point_of_interest', 'establishment']"
Østre Gasværk Theater,55.71003839999999,12.5818456,"['point_of_interest', 'establishment']"
DMC Denmark,55.709686,12.5870016,"['travel_agency', 'point_of_interest', 'establishment']"
Jens Krabbe Spin Off,55.709359,12.587018,"['point_of_interest', 'establishment']"
Basen Skole - Strandboulevarden,55.7095537,12.5855241,"['school', 'point_of_interest', 'establishment']"
Bonnier Magazine Data A/S,55.7095874,12.5855142,"['point_of_interest', 'establishment']"
"Sound meditation awareness, Konsulentvirksomhed v/Bjarne V. Larsen",55.709104,12.586215,"['point_of_interest', 'establishment']"
Bpi Service Filial af Bonnier Publications International As,55.70941800000001,12.583773,"['point_of_interest', 'establishment']"
Video File Rescue,55.7088769,12.5834171,"['point_of_interest', 'establishment']"
PsykologHuset,55.7086269,12.5829908,"['health', 'point_of_interest', 'establishment']"
Børnefamiliecentret København - Børnefamilieenheden City-Østerbro,55.7086269,12.5829908,"['point_of_interest', 'establishment']"
Mbm Productions v/Mark Balstrup,55.709641,12.582888,"['point_of_interest', 'establishment']"
Adelsten Niels,55.7085309,12.5874545,"['health', 'point_of_interest', 'establishment']"
Personlig Træning v/ Caroline Wolf,55.7089671,12.5876863,"['health', 'point_of_interest', 'establishment']"
Klinik For Helse&Velvære v/Birgitte Rigmor Wuttke,55.70957999999999,12.587469,"['point_of_interest', 'establishment']"
Bessermachen Goodwill ApS,55.709791,12.587313,"['point_of_interest', 'establishment']"
Subsero A/S,55.709621,12.587887,"['point_of_interest', 'establishment']"
Beck IT v/Michael Beck,55.709621,12.587887,"['point_of_interest', 'establishment']"
Dream Models,55.7089116,12.582043,"['point_of_interest', 'establishment']"
Hypnosecentret v/Birgitte Staal,55.7086142,12.582031,"['health', 'point_of_interest', 'establishment']"
FpvGear.dk,55.709621,12.587887,"['electronics_store', 'point_of_interest', 'store', 'establishment']"
Luca Berti,55.7089071,12.581553,"['point_of_interest', 'establishment']"
Erik Møller,55.7081593,12.5820519,"['general_contractor', 'point_of_interest', 'establishment']"
Johansen Trading,55.7093916,12.5819125,"['point_of_interest', 'establishment']"
Konark Tegnestue - Arkitekt & Konstruktør - København - Odense,55.7081899,12.5816039,"['point_of_interest', 'establishment']"
Nydahl VVS,55.7081593,12.5820519,"['plumber', 'point_of_interest', 'establishment']"
Bogføreren,55.708095,12.581966,"['point_of_interest', 'establishment']"
Danskdansk,55.709961,12.581802,"['point_of_interest', 'establishment']"
Børneflokken Vordingborggade,55.70808599999999,12.581646,"['school', 'point_of_interest', 'establishment']"
Christiansen Michael,55.707637,12.582368,"['point_of_interest', 'establishment']"
Hanne Svejgaard Hair&Makeup,55.7075291,12.5821731,"['point_of_interest', 'establishment']"
Racconto,55.70742320000001,12.5828989,"['point_of_interest', 'establishment']"
webmastersystem,55.70841360000001,12.5807241,"['grocery_or_supermarket', 'food', 'point_of_interest', 'store', 'establishment']"
Andreas Broe Løwe,55.70900870000001,12.5803941,"['point_of_interest', 'establishment']"
Arbejdernes Andels-boligforening afd. 3,55.7077153,12.5812445,"['point_of_interest', 'establishment']"
Maconomy A/S,55.7078606,12.5801646,"['point_of_interest', 'establishment']"
Knudsen,55.708665,12.580903,"['point_of_interest', 'establishment']"
Psykolog Inge Guldal Pedersen,55.7078606,12.5801645,"['health', 'point_of_interest', 'establishment']"
A/B Vordingborggade 19 M Fl,55.70809149999999,12.5810023,"['point_of_interest', 'establishment']"
feelgood dk,55.708441,12.58058,"['gym', 'health', 'point_of_interest', 'establishment']"
Johanna Fridell,55.7086676,12.5803468,"['point_of_interest', 'establishment']"
Stine Richardt,55.70963219999999,12.5803976,"['point_of_interest', 'establishment']"
4-0-17-25 v/Berit Røgild,55.708733,12.577675,"['point_of_interest', 'establishment']"
1 Duangjai Thai Restaurant,55.70963339999999,12.5780895,"['restaurant', 'food', 'point_of_interest', 'establishment']"
Psykolog Marianne Kruse,55.7078606,12.5801645,"['health', 'point_of_interest', 'establishment']"
Charlotte Snede,55.7088183,12.5798647,"['point_of_interest', 'establishment']"
Lohmann Thomas Bugge,55.70741,12.5798639,"['point_of_interest', 'establishment']"
Massage & Wellness v/ Klinik MiJo,55.709393,12.5798627,"['spa', 'point_of_interest', 'establishment']"
Skolefritidshjemmet Vibenshus,55.708763,12.5787877,"['point_of_interest', 'establishment']"
Østerbrodiætisterne,55.7078606,12.5801645,"['health', 'point_of_interest', 'establishment']"
Reklamedata A/S,55.7078606,12.5801646,"['point_of_interest', 'establishment']"
Deltek Business Solutions A/S,55.7078606,12.5801646,"['point_of_interest', 'establishment']"
Real L'hôpital,55.7074444,12.5822006,"['point_of_interest', 'establishment']"
Vejlgaard Invest ApS,55.7074251,12.5826891,"['point_of_interest', 'establishment']"
Domino's Pizza,55.70773,12.5771071,"['meal_delivery', 'meal_takeaway', 'restaurant', 'food', 'point_of_interest', 'establishment']"
Profil Optik,55.708475,12.5777053,"['health', 'point_of_interest', 'store', 'establishment']"
Dagens Fisk,55.70898529999999,12.5776954,"['food', 'point_of_interest', 'store', 'establishment']"
Mobile Fitness A/S,55.7089751,12.5778361,"['point_of_interest', 'establishment']"
Vibenshus Boligforening,55.70837,12.578376,"['point_of_interest', 'establishment']"
Kaae Peter (Tandlæge),55.70896159999999,12.5779017,"['dentist', 'health', 'point_of_interest', 'establishment']"
Tolstrup Pryds Grafisk Tegnestue,55.7095103,12.5780821,"['point_of_interest', 'establishment']"
Sisi Skrædder,55.70955,12.577819,"['point_of_interest', 'establishment']"
Danske Unipol A/S,55.70938659999999,12.5787976,"['point_of_interest', 'establishment']"
Lonni Sandbjerg Hansen,55.7093831,12.5786064,"['hair_care', 'point_of_interest', 'establishment']"
Fiordilatte Pizzeria Italiana,55.709383,12.578606,"['meal_takeaway', 'restaurant', 'food', 'point_of_interest', 'establishment']"
Cederberg.As,55.707818,12.579424,"['point_of_interest', 'establishment']"
Punjabi,55.7093795,12.5783843,"['meal_takeaway', 'restaurant', 'food', 'point_of_interest', 'establishment']"
Dansk Fodtennis Forbund,55.70798929999999,12.5789272,"['point_of_interest', 'establishment']"
Banditten,55.70739629999999,12.5777335,"['point_of_interest', 'store', 'establishment']"
Mia Mills Fashion,55.70805190000001,12.5777278,"['clothing_store', 'point_of_interest', 'store', 'establishment']"
Øbro congregation Kindergarten dept. David,55.707278,12.579152,"['school', 'point_of_interest', 'establishment']"
The law firm Jelsdorf & Henriksen,55.709624,12.577261,"['point_of_interest', 'establishment']"
I-Guide Aps,55.7089751,12.5778361,"['point_of_interest', 'establishment']"
Schannong Mogens (Stenhugger),55.7096303,12.5768655,"['point_of_interest', 'establishment']"
Alliance Trafikskole Østerbro,55.70898930000001,12.5781906,"['point_of_interest', 'establishment']"
Teater Hund & Co.,55.7084431,12.5766692,"['point_of_interest', 'establishment']"
Co2-Guide ApS,55.70896159999999,12.5779017,"['point_of_interest', 'establishment']"
Møntkompagniet ApS,55.70896159999999,12.5779017,"['point_of_interest', 'store', 'establishment']"
Doceye,55.7095101,12.5780057,"['point_of_interest', 'establishment']"
Shopråt,55.70963339999999,12.5780895,"['point_of_interest', 'establishment']"
Kastrup Apotek v/Benedikte Lessow,55.7079663,12.5788046,"['pharmacy', 'health', 'point_of_interest', 'store', 'establishment']"
BabySam Østerbro,55.709383,12.5778204,"['furniture_store', 'home_goods_store', 'point_of_interest', 'clothing_store', 'store', 'establishment']"
Bryggeriet Djævlebryg ApS,55.7089061,12.5776908,"['food', 'point_of_interest', 'establishment']"
Dropin hairstyle,55.7087726,12.5777226,"['hair_care', 'point_of_interest', 'establishment']"
Good Morning City Copenhagen Star,55.6719444,12.5625,"['lodging', 'point_of_interest', 'establishment']"
Zleep Hotels,55.67151939999999,12.5613111,"['lodging', 'point_of_interest', 'establishment']"
Saga Hotel,55.67159649999999,12.5624695,"['lodging', 'point_of_interest', 'establishment']"
Hotel Ansgar,55.67080240000001,12.5637245,"['lodging', 'point_of_interest', 'establishment']"
Andersen Hotel,55.6718333,12.5611083,"['lodging', 'point_of_interest', 'establishment']"
Absalon Hotel,55.6716431,12.5616456,"['lodging', 'bar', 'point_of_interest', 'establishment']"
Axel Guldsmeden Hotel,55.6722128,12.5618399,"['cafe', 'lodging', 'bar', 'restaurant', 'food', 'point_of_interest', 'establishment']"
Hotel Tiffany,55.670992,12.5631319,"['lodging', 'point_of_interest', 'establishment']"
Hotel Du Nord,55.6720203,12.5619904,"['lodging', 'point_of_interest', 'establishment']"
Best Western Hotel Hebron,55.67262299999999,12.5608361,"['lodging', 'point_of_interest', 'establishment']"
DGI-byen,55.6694567,12.5645569,"['lodging', 'point_of_interest', 'establishment']"
Woodah Boutique Hostel,55.6719626,12.5577809,"['lodging', 'point_of_interest', 'establishment']"
Sort/Hvid,55.6680293,12.5627358,"['point_of_interest', 'establishment']"
Cofoco,55.67181429999999,12.5584284,"['restaurant', 'food', 'point_of_interest', 'establishment']"
Mikkeller Bar,55.6718915,12.5575833,"['bar', 'point_of_interest', 'establishment']"
Mays Wellness & Spa,55.6710722,12.5572014,"['beauty_salon', 'hair_care', 'health', 'point_of_interest', 'establishment']"
Bento Copenhagen,55.671337,12.5613188,"['restaurant', 'food', 'point_of_interest', 'establishment']"
Kødbyens Fiskebar,55.6679028,12.5592333,"['restaurant', 'food', 'point_of_interest', 'establishment']"
København V,55.6713789,12.5606474,"['sublocality_level_1', 'sublocality', 'political']"
Paté Paté,55.6691696,12.5586247,"['restaurant', 'bar', 'food', 'point_of_interest', 'establishment']"
Tandoori Masala,55.6707891,12.5625405,"['meal_takeaway', 'restaurant', 'food', 'point_of_interest', 'establishment']"
Fitness World,55.67084649999999,12.557026,"['gym', 'health', 'point_of_interest', 'establishment']"
"Københavns Politi, Station City (no citizen service)",55.670449,12.559954,"['police', 'point_of_interest', 'establishment']"
Plan E,55.67098050000001,12.5588292,"['point_of_interest', 'store', 'establishment']"
Øksnehallen,55.6694724,12.5621014,"['point_of_interest', 'establishment']"
5e,55.66918,12.561085,"['point_of_interest', 'establishment']"
SuperBrugsen,55.6688172,12.5579181,"['supermarket', 'grocery_or_supermarket', 'food', 'point_of_interest', 'store', 'establishment']"
Ban Gaw,55.6691329,12.5574079,"['restaurant', 'food', 'point_of_interest', 'establishment']"
Club 34,55.6708081,12.5583348,"['point_of_interest', 'establishment']"
Harup Holding ApS,55.6694329,12.5570473,"['point_of_interest', 'establishment']"
Bob Bistro,55.6693523,12.5588787,"['meal_delivery', 'restaurant', 'food', 'point_of_interest', 'establishment']"
Senza Nome,55.6707214,12.5586399,"['restaurant', 'food', 'point_of_interest', 'establishment']"
Frk. Barners Kælder,55.67217899999999,12.5607951,"['restaurant', 'food', 'point_of_interest', 'establishment']"
Tony's Pizza,55.67065539999999,12.5578226,"['restaurant', 'food', 'point_of_interest', 'establishment']"
Fu Hao,55.67168269999999,12.5627552,"['restaurant', 'food', 'point_of_interest', 'establishment']"
A/B Lille Istedgade 3,55.67050380000001,12.5600815,"['point_of_interest', 'establishment']"
Husets Teater,55.6702185,12.5613186,"['point_of_interest', 'establishment']"
Miks Tattoo,55.671146,12.560718,"['point_of_interest', 'store', 'establishment']"
DGI-byen Aquatic Centre,55.6692471,12.5644017,"['point_of_interest', 'establishment']"
V1 Gallery,55.6675817,12.5612425,"['art_gallery', 'point_of_interest', 'establishment']"
JazzDanmark,55.669997,12.560963,"['point_of_interest', 'establishment']"
Radio Vesterbro,55.670064,12.561117,"['point_of_interest', 'establishment']"
Minority,55.669997,12.5609629,"['point_of_interest', 'establishment']"
Freddys Bar,55.66963029999999,12.5582722,"['bar', 'point_of_interest', 'establishment']"
Steen Egeberg,55.66978349999999,12.5586644,"['point_of_interest', 'establishment']"
Everbest Trading,55.6685788,12.5612399,"['point_of_interest', 'establishment']"
Copenhagen Frisør Salon,55.6705156,12.5580839,"['hair_care', 'point_of_interest', 'establishment']"
Sabaah,55.669997,12.5609629,"['point_of_interest', 'establishment']"
Kalu A/S,55.6686,12.560454,"['food', 'point_of_interest', 'establishment']"
Dat-Schaub A/S,55.6685952,12.5600322,"['point_of_interest', 'establishment']"
J K Salater Og Dressinger,55.6686013,12.5593643,"['food', 'point_of_interest', 'establishment']"
CPH Opera Festival,55.668403,12.561041,"['point_of_interest', 'establishment']"
Co-ma De Fire Årstider,55.6695603,12.5583598,"['cafe', 'bar', 'restaurant', 'food', 'point_of_interest', 'establishment']"
Global Food Trading ApS (cash and carry engrosbutik),55.66931169999999,12.5577253,"['point_of_interest', 'establishment']"
KFUKs Sociale Arbejdes Krisecenter,55.6699327,12.5578998,"['point_of_interest', 'establishment']"
Anders Clausen Fotograf,55.6706507,12.5605508,"['point_of_interest', 'establishment']"
Deli Food A/S,55.66874939999999,12.5607921,"['point_of_interest', 'establishment']"
Cobanoglu Vandpiber,55.6703863,12.5569327,"['convenience_store', 'food', 'point_of_interest', 'store', 'establishment']"
De Hjemløses Tandklinik - Bisserne Kbh,55.670789,12.559699,"['dentist', 'health', 'point_of_interest', 'establishment']"
Comfort Hotel Vesterbro,55.67290939999999,12.5593586,"['lodging', 'restaurant', 'food', 'point_of_interest', 'establishment']"
Hotel Mayfair (Formerly First Hotel Mayfair),55.67270599999999,12.5611231,"['lodging', 'bar', 'point_of_interest', 'establishment']"
Scandic Webers,55.6732154,12.5612269,"['lodging', 'bar', 'point_of_interest', 'establishment']"
Nebo,55.6723625,12.562733,"['lodging', 'point_of_interest', 'establishment']"
Hotel Viktoria,55.6724194,12.557275,"['lodging', 'point_of_interest', 'establishment']"
Hotel Løven,55.67264849999999,12.5569348,"['lodging', 'point_of_interest', 'establishment']"
Copenhagen Backpackers Hostel,55.6728154,12.5626624,"['lodging', 'point_of_interest', 'establishment']"
Savoy Hotel,55.67256709999999,12.5564305,"['lodging', 'point_of_interest', 'establishment']"
Floras Café & Steakhouse,55.6733389,12.5598556,"['cafe', 'restaurant', 'food', 'point_of_interest', 'establishment']"
Ristorante Retro Gusto I/S,55.6727504,12.5583873,"['restaurant', 'food', 'point_of_interest', 'establishment']"
Nibon Ya Sushi,55.673122,12.560166,"['meal_takeaway', 'restaurant', 'food', 'point_of_interest', 'establishment']"
Magasasa,55.6723478,12.5630872,"['meal_takeaway', 'restaurant', 'food', 'point_of_interest', 'establishment']"
Restaurant Jensens Bøfhus København Vesterbrogade,55.673343,12.56168,"['restaurant', 'food', 'point_of_interest', 'establishment']"
Kebabish,55.67316499999999,12.56048,"['restaurant', 'food', 'point_of_interest', 'establishment']"
L'age D'or,55.6730904,12.5588996,"['jewelry_store', 'point_of_interest', 'store', 'establishment']"
Copenhagen Hairdressing School,55.6728394,12.5575153,"['point_of_interest', 'establishment']"
Denmark Worldwide ApS,55.6720962,12.5636338,"['shopping_mall', 'point_of_interest', 'establishment']"
E/F Vendersgade 10-10 A,55.6733995,12.5601161,"['point_of_interest', 'establishment']"
E/F Frederikkevej 2 og 2 A,55.6733995,12.5601161,"['point_of_interest', 'establishment']"
Ophthalmologist Richardt Hansen,55.6733995,12.5601161,"['doctor', 'health', 'point_of_interest', 'establishment']"
Vuggestuen abel,55.6718795,12.559742,"['point_of_interest', 'establishment']"
PureCosmetica Makeup København,55.671553,12.556375,"['beauty_salon', 'point_of_interest', 'establishment']"
"The Blue Hall, Antiques",55.6686166,12.6239481,"['point_of_interest', 'establishment']"
Dykkerklubben Goplerne,55.6670653,12.6215443,"['school', 'point_of_interest', 'establishment']"
Antechamber,55.66691700000001,12.621916,"['point_of_interest', 'establishment']"
E & L Containerudlejning Petersen,55.666469,12.620952,"['point_of_interest', 'establishment']"
Teater PLAY,55.6669324,12.6206061,"['point_of_interest', 'establishment']"
Nordisk Afløbs Teknik A/S,55.66692800000001,12.6206289,"['point_of_interest', 'establishment']"
Fonden Børnehjælpsdagen af 6. Maj 1904,55.66692800000001,12.6206289,"['point_of_interest', 'establishment']"
Wæver Design Studio,55.66681200000001,12.620237,"['point_of_interest', 'establishment']"
Øens Pakhus A/S,55.6674525,12.62276,"['point_of_interest', 'establishment']"
D-G El-Service a/S,55.666546,12.62045,"['point_of_interest', 'establishment']"
NorthQ ApS,55.6677714,12.6227523,"['point_of_interest', 'establishment']"
Rags & Bags ApS,55.666387,12.6203559,"['point_of_interest', 'establishment']"
Birk & Winther A/S,55.66752899999999,12.622816,"['point_of_interest', 'establishment']"
Amager Erhvervsforening A/S,55.6674472,12.6228923,"['point_of_interest', 'establishment']"
Cph Fashion Group ApS,55.6674472,12.6228923,"['point_of_interest', 'establishment']"
Anton Hoelstad ApS,55.6663378,12.6206835,"['point_of_interest', 'establishment']"
Lykkeberg Holding ApS,55.666326,12.620621,"['point_of_interest', 'establishment']"
Møblér,55.666326,12.620621,"['furniture_store', 'home_goods_store', 'point_of_interest', 'store', 'establishment']"
Morten Bruzelius Holding ApS,55.666326,12.620621,"['point_of_interest', 'establishment']"
Lykkeberg Investment Group ApS,55.666326,12.620621,"['point_of_interest', 'establishment']"
Hotel Amager,55.66568840000001,12.5994484,"['lodging', 'point_of_interest', 'establishment']"
Urban Bed & Breakfast,55.66708980000001,12.598132,"['lodging', 'point_of_interest', 'establishment']"
Rent a Room Copenhagen,55.6678489,12.5966204,"['lodging', 'point_of_interest', 'establishment']"
Domino's Pizza,55.665169,12.599319,"['meal_delivery', 'meal_takeaway', 'restaurant', 'food', 'point_of_interest', 'establishment']"
Beckmann Maling & Tapet,55.6674759,12.597754,"['home_goods_store', 'point_of_interest', 'store', 'establishment']"
Salon Nilsson & Vinograd.dk,55.6680754,12.5971848,"['hair_care', 'liquor_store', 'food', 'point_of_interest', 'store', 'establishment']"
Bryggens Kiropraktisk Klinik,55.66567,12.597684,"['health', 'point_of_interest', 'establishment']"
Galleri Bomhuset,55.666751,12.597974,"['art_gallery', 'point_of_interest', 'establishment']"
Wichmann Couture v/J A Wichmann,55.66597299999999,12.59799,"['point_of_interest', 'establishment']"
Thomas Larsen Fotografi,55.6672531,12.5960589,"['point_of_interest', 'establishment']"
Speciallæger I Hudsygdomme I/S Villadsen Sindrup & Thomsen,55.66654219999999,12.5981751,"['health', 'point_of_interest', 'establishment']"
Thehotelweb A/S,55.6669408,12.597689,"['point_of_interest', 'establishment']"
Frisør Scharff V/Nivi Martins,55.6670342,12.5976736,"['hair_care', 'point_of_interest', 'establishment']"
Københavns Kommunes Integreret Institution,55.66605229999999,12.598579,"['school', 'point_of_interest', 'establishment']"
"Christianshavn Brandstation, Hovedstadens Beredskab",55.6683086,12.5993061,"['fire_station', 'point_of_interest', 'establishment']"
Hanne Skov,55.667499,12.598774,"['point_of_interest', 'establishment']"
Health And Sports Massage Amager,55.66624299999999,12.595318,"['point_of_interest', 'establishment']"
Corsagen.dk,55.6664407,12.5976835,"['clothing_store', 'point_of_interest', 'store', 'establishment']"
Foodie,55.66731919999999,12.5978964,"['restaurant', 'food', 'point_of_interest', 'establishment']"
Morten Buch Lassen,55.6680675,12.5979086,"['point_of_interest', 'establishment']"
Super Navigators,55.667005,12.595388,"['point_of_interest', 'establishment']"
Damefrisør John Jespersen,55.66586479999999,12.5987634,"['hair_care', 'point_of_interest', 'establishment']"
Murermester Carl Magnus Henriques,55.667799,12.5956462,"['general_contractor', 'point_of_interest', 'establishment']"
Bacher A/S,55.66672390000001,12.5985132,"['point_of_interest', 'clothing_store', 'store', 'establishment']"
Psykolog Lisbeth Balslev-Olesen,55.66708980000001,12.598132,"['health', 'point_of_interest', 'establishment']"
Star Timber ApS,55.6671384,12.598153,"['point_of_interest', 'establishment']"
Murefirmaet Wies,55.6670506,12.5965059,"['general_contractor', 'point_of_interest', 'establishment']"
Marstal Copenhagen,55.6678184,12.5961751,"['jewelry_store', 'point_of_interest', 'store', 'establishment']"
Korruption,55.6668359,12.597552,"['point_of_interest', 'establishment']"
Royal Distribution ApS,55.6673511,12.5957425,"['point_of_interest', 'establishment']"
Fjeldborg Andreas Christian,55.666375,12.596317,"['point_of_interest', 'establishment']"
Cudi Webdesign,55.66787400000001,12.597966,"['point_of_interest', 'establishment']"
Pagsberg&Schultz Musik I/S,55.6658193,12.5967483,"['point_of_interest', 'establishment']"
Torsten Freund Vin,55.6658193,12.5967483,"['liquor_store', 'food', 'point_of_interest', 'store', 'establishment']"
Sund Rådgivning I/S,55.66769,12.5960938,"['point_of_interest', 'establishment']"
Neumann,55.6667457,12.597878,"['moving_company', 'point_of_interest', 'establishment']"
Amager Kebab 2001,55.6661031,12.598616,"['restaurant', 'food', 'point_of_interest', 'establishment']"
Tore Tveit Knudsen,55.66708980000001,12.598132,"['doctor', 'health', 'point_of_interest', 'establishment']"
Flytjer.DK v/ Tim Sick,55.666836,12.597552,"['point_of_interest', 'establishment']"
"Clairvoyance, Numerologi og Healing v/Lone Hertz",55.667181,12.5985859,"['health', 'point_of_interest', 'establishment']"
Hjerneskadeforeningen Hovedcirklen,55.66735910000001,12.597832,"['point_of_interest', 'establishment']"
Pontops ApS,55.6665188,12.5980269,"['point_of_interest', 'establishment']"
Kviktrafikskole - Køreskole på Amager,55.6665188,12.5980269,"['point_of_interest', 'establishment']"
Akupunktet v/Louise Marx,55.66727220000001,12.597369,"['point_of_interest', 'establishment']"
Køreskole Amager | Centrum Trafik,55.66727220000001,12.597369,"['point_of_interest', 'establishment']"
"ALRUM - Plakater, Keramik & Accessories",55.6672722,12.5973689,"['store', 'point_of_interest', 'establishment']"
Corsagen v/Heidi Bergtofte,55.6664407,12.5976835,"['point_of_interest', 'establishment']"
Giin Khao Thai,55.666413,12.598292,"['meal_takeaway', 'restaurant', 'food', 'point_of_interest', 'establishment']"
Giese Communications ApS,55.6670411,12.5969598,"['point_of_interest', 'establishment']"
Haabet Bodega bar,55.6674038,12.5972642,"['bar', 'point_of_interest', 'establishment']"
Axel & Inge Kellermann,55.667237,12.599132,"['point_of_interest', 'establishment']"
Houle Management,55.66674200000001,12.5968075,"['point_of_interest', 'establishment']"
Klar Til Kina v/Susanne Bjertrup,55.6679895,12.5957262,"['point_of_interest', 'establishment']"
CLUBTAN Sol & Wellness,55.6675177,12.5971689,"['beauty_salon', 'point_of_interest', 'establishment']"
Amagerbro Kiosk,55.668495,12.596844,"['point_of_interest', 'store', 'establishment']"
Fotograf Berith Culmsee,55.6668696,12.5993845,"['point_of_interest', 'establishment']"
F M Totalservice v/Flemming Poulsen,55.6668696,12.5993845,"['point_of_interest', 'establishment']"
Café S,55.6675671,12.5970784,"['cafe', 'food', 'point_of_interest', 'establishment']"
Øresundskollegiet,55.6669546,12.6034848,"['university', 'point_of_interest', 'establishment']"
Vermlandsgade Genbrugsstation,55.6691325,12.6016907,"['point_of_interest', 'establishment']"
Sascha Oda,55.6668544,12.6009859,"['point_of_interest', 'establishment']"
Folkekirkens Nødhjælp Genbrug,55.665473,12.599695,"['point_of_interest', 'store', 'establishment']"
CPH Electric,55.6665709,12.6014161,"['electrician', 'point_of_interest', 'establishment']"
Dkmiljoe.DK v/Gitte Budtz,55.66730099999999,12.599408,"['point_of_interest', 'establishment']"
føtex Food Convenience - Amagerbro,55.66630780000001,12.5989551,"['grocery_or_supermarket', 'supermarket', 'food', 'point_of_interest', 'store', 'establishment']"
Needkite,55.6670873,12.6002693,"['point_of_interest', 'store', 'establishment']"
Connect U,55.667584,12.599864,"['health', 'point_of_interest', 'establishment']"
Mawi Consult ApS,55.667897,12.5993359,"['point_of_interest', 'establishment']"
theilgaard.net,55.66792,12.599131,"['point_of_interest', 'establishment']"
Ministry Of Balboa,55.667922,12.598463,"['point_of_interest', 'establishment']"
Smartphone Shop,55.66605229999999,12.598579,"['point_of_interest', 'store', 'establishment']"
Scandiskilte,55.6660392,12.5986371,"['store', 'point_of_interest', 'establishment']"
Oliverssalon,55.66599540000001,12.5986835,"['hair_care', 'point_of_interest', 'establishment']"
Mobilio ApS,55.6659889,12.5986934,"['point_of_interest', 'establishment']"
Jakob Jørgensen,55.66723380000001,12.600837,"['point_of_interest', 'establishment']"
Gear Klinikken,55.6663949,12.6008754,"['point_of_interest', 'establishment']"
Top El-Teknik ApS,55.66682040000001,12.6015265,"['electrician', 'point_of_interest', 'establishment']"
Boligforeningen Aab Afd.19,55.6655587,12.5998635,"['point_of_interest', 'establishment']"
Herlev Fysioterapi og Træningsklin Ik v/Mia Nørgaard Edrich,55.6651952,12.5994247,"['point_of_interest', 'establishment']"
BrandBird,55.6663426,12.6014448,"['point_of_interest', 'establishment']"
Rejsebixen v/Niels Jørgen Nielsen,55.6664835,12.601783,"['point_of_interest', 'establishment']"
Amager Pub,55.6658086,12.5993603,"['bar', 'point_of_interest', 'establishment']"
Spiseriet 2300,55.666886,12.603125,"['restaurant', 'food', 'point_of_interest', 'establishment']"
Down Wonder dorm Bar,55.6669989,12.6033535,"['bar', 'point_of_interest', 'establishment']"
It-Tronic ApS,55.6655587,12.5998635,"['point_of_interest', 'establishment']"
Aeko,55.6668325,12.6040912,"['point_of_interest', 'establishment']"
Allan Davidsen Design,55.6668325,12.6040912,"['point_of_interest', 'establishment']"
Erla Perla v/Erla Mortensen,55.6668325,12.6040912,"['point_of_interest', 'establishment']"
Kristine Kemp,55.66871279999999,12.5987877,"['point_of_interest', 'establishment']"
INGO,55.6688275,12.602362,"['gas_station', 'point_of_interest', 'establishment']"
I/S Amager Ressourcecenter,55.6692098,12.6020628,"['point_of_interest', 'establishment']"
Cort Koppel,55.6686965,12.5986441,"['point_of_interest', 'store', 'establishment']"
Pumacode,55.6686965,12.5986441,"['point_of_interest', 'establishment']"
HOFOR A/S,55.66927700000001,12.602852,"['point_of_interest', 'establishment']"
Krogh-Lipani ApS,55.66875530000001,12.5981284,"['point_of_interest', 'establishment']"
Netto,55.6686875,12.5978968,"['grocery_or_supermarket', 'supermarket', 'food', 'point_of_interest', 'store', 'establishment']"
Great eDesign,55.6674629,12.6043001,"['point_of_interest', 'establishment']"
Puurfood,55.6678643,12.5973773,"['point_of_interest', 'establishment']"
Kolonihaven Vennelyst,55.66997139999999,12.6025907,"['point_of_interest', 'establishment']"
Pharmaero,55.667112,12.605214,"['point_of_interest', 'establishment']"
Poledanceshop,55.66657499999999,12.605148,"['point_of_interest', 'store', 'establishment']"
Kulturforeningen Dagmaria,55.666502,12.6051889,"['point_of_interest', 'establishment']"
Europa New Fashion,55.665715,12.603192,"['point_of_interest', 'establishment']"
Vennelyst Allotment Gardens,55.670495,12.6021173,"['museum', 'point_of_interest', 'establishment']"
nembil.dk,55.6695112,12.6056364,"['point_of_interest', 'establishment']"
Københavns Kommune Teknik,55.669032,12.603243,"['point_of_interest', 'establishment']"
Vibeke Lund-Hansen (Dyrlæge),55.6664745,12.6018216,"['veterinary_care', 'point_of_interest', 'establishment']"
Xellia,55.667112,12.605214,"['health', 'point_of_interest', 'establishment']"
M18,55.69195,12.5547902,"['lodging', 'point_of_interest', 'establishment']"
Pølsemand Helge Kragh,55.6935026,12.5523778,"['point_of_interest', 'establishment']"
Empire Cinema,55.69186159999999,12.5558094,"['movie_theater', 'point_of_interest', 'establishment']"
Mejlshede Låse/Nøgler A/S,55.69205239999999,12.5525251,"['locksmith', 'point_of_interest', 'establishment']"
Gastronomia Italiana 5 (Jagtvej),55.6957586,12.5502119,"['restaurant', 'food', 'point_of_interest', 'establishment']"
Fensmarkskolen,55.6959454,12.5520705,"['primary_school', 'school', 'point_of_interest', 'establishment']"
Realmæglerne Lenzberg & Kristensen,55.695237,12.549518,"['real_estate_agency', 'point_of_interest', 'establishment']"
Gastronomisk Legestue,55.693967,12.5511496,"['point_of_interest', 'establishment']"
Fritidshjemmet Universet,55.693023,12.5532679,"['point_of_interest', 'establishment']"
Lush Lounge by Anja Jargil,55.6931377,12.5521605,"['hair_care', 'point_of_interest', 'establishment']"
Børnehuset Land & By,55.6940416,12.5533809,"['school', 'point_of_interest', 'establishment']"
andersklingenberg.com,55.693573,12.5522698,"['point_of_interest', 'establishment']"
Linda Salon,55.6928636,12.5513123,"['hair_care', 'point_of_interest', 'establishment']"
Lokomotiv Ordrup,55.69329159999999,12.5552798,"['point_of_interest', 'establishment']"
Grønnegården A/B,55.69366100000001,12.5520574,"['local_government_office', 'point_of_interest', 'establishment']"
Hjerte og Sind,55.6951244,12.5522232,"['point_of_interest', 'establishment']"
Tine Søndergaard,55.69383129999999,12.5500278,"['doctor', 'health', 'point_of_interest', 'establishment']"
Homeopathic clinic Evolve v / Kåre Troelsen,55.693985,12.5524709,"['health', 'point_of_interest', 'establishment']"
Nørrebro,55.6991166,12.5542484,"['sublocality_level_2', 'sublocality', 'political']"
Liniebyg v/Reza Bazaz,55.6944472,12.5508423,"['point_of_interest', 'establishment']"
Projekt Offside,55.6939448,12.5516486,"['point_of_interest', 'establishment']"
Simeons Kirkes Menighedssamfund,55.6937082,12.553396,"['church', 'place_of_worship', 'point_of_interest', 'establishment']"
Studio Marianne Viktor,55.6943273,12.5521471,"['point_of_interest', 'establishment']"
Fotograf Alexandra Buhl,55.6926209,12.5532243,"['point_of_interest', 'establishment']"
Monique Engelund,55.694221,12.552419,"['point_of_interest', 'establishment']"
Karen Gjesing,55.693534,12.5518644,"['point_of_interest', 'establishment']"
Lund-Andersen Media v/Michael Lund-Andersen,55.69501199999999,12.552908,"['point_of_interest', 'establishment']"
The Freaky Cartoon House v/Sabine Ravn,55.69389140000001,12.5527053,"['point_of_interest', 'establishment']"
Maj Winther Christensen Design,55.69389140000001,12.5527053,"['point_of_interest', 'establishment']"
Homøopat Maj-Britt Brusati,55.6940059,12.5525295,"['health', 'point_of_interest', 'establishment']"
Simeons Kirke,55.693708,12.553396,"['church', 'place_of_worship', 'point_of_interest', 'establishment']"
D'emil Design v/Emil Holtoug,55.6943273,12.5521471,"['point_of_interest', 'establishment']"
Foreningen Sjællandsgade Bad,55.6934394,12.5534161,"['point_of_interest', 'establishment']"
Designbox v/Marianne Tietge,55.6954806,12.5532176,"['point_of_interest', 'establishment']"
Klinik For Fodterapi v/ Nellie Svane,55.6934184,12.5523921,"['doctor', 'health', 'point_of_interest', 'establishment']"
Cody v/Kaspar Kaae,55.69474,12.552676,"['point_of_interest', 'establishment']"
Staberg.DK,55.69474,12.552676,"['point_of_interest', 'establishment']"
Guldblomst,55.69390229999999,12.5544788,"['florist', 'point_of_interest', 'store', 'establishment']"
Lea Lerche Klaaborg,55.69480369999999,12.553602,"['point_of_interest', 'establishment']"
AB Guld,55.6938547,12.5546059,"['point_of_interest', 'establishment']"
Hellerup Elektrikeren ApS,55.693967,12.5511496,"['point_of_interest', 'establishment']"
Feelgood Bakery,55.694029,12.5510578,"['bakery', 'food', 'point_of_interest', 'store', 'establishment']"
Designritter.Com v/David Ritter,55.694029,12.5510578,"['point_of_interest', 'establishment']"
Hrj-Revisor ApS,55.6940731,12.5510277,"['point_of_interest', 'establishment']"
White Tube,55.6928994,12.5531995,"['school', 'point_of_interest', 'establishment']"
Strictly Knit - Stort udvalg af pyntepuder til boligen - Vi ses online!,55.69419689999999,12.5501013,"['point_of_interest', 'establishment']"
Olrik Living v/Sahra Olrik,55.69301,12.554047,"['point_of_interest', 'establishment']"
Morfar Produktion v/Malte Pedersson,55.6951244,12.5522232,"['point_of_interest', 'establishment']"
Tripalu,55.6934801,12.554946,"['travel_agency', 'point_of_interest', 'establishment']"
R & H A/S,55.6920964,12.5539062,"['point_of_interest', 'store', 'establishment']"
XYren Ejendomsservice v/Henrik Thomas Fischer,55.6923234,12.5544925,"['real_estate_agency', 'point_of_interest', 'establishment']"
Copenhagen Food Consulting ApS,55.6929366,12.5515659,"['point_of_interest', 'establishment']"
Petersvarre.dk,55.693576,12.550628,"['point_of_interest', 'establishment']"
Christian Thaulow Photography (Ctp) v/Christian Oluf Thaulow,55.69325569999999,12.5550566,"['point_of_interest', 'establishment']"
Durum King,55.69288,12.5515148,"['meal_takeaway', 'restaurant', 'food', 'point_of_interest', 'establishment']"
Dürüm Symfoni,55.69320039999999,12.5508569,"['restaurant', 'food', 'point_of_interest', 'establishment']"
Burgerklubben,55.69299900000001,12.5511269,"['restaurant', 'food', 'point_of_interest', 'establishment']"
Ignatius.DK v/Bjørn Ignatius Øckenholt,55.69441639999999,12.5504387,"['art_gallery', 'point_of_interest', 'establishment']"
Poulsen & Ploug,55.6956268,12.554012,"['point_of_interest', 'establishment']"
ALDI,55.69369080000001,12.5478908,"['supermarket', 'bakery', 'grocery_or_supermarket', 'liquor_store', 'food', 'point_of_interest', 'store', 'establishment']"
Kvickly,55.6945457,12.5475868,"['supermarket', 'grocery_or_supermarket', 'home_goods_store', 'food', 'point_of_interest', 'store', 'establishment']"
Street Cut,55.69483830000001,12.5482561,"['hair_care', 'point_of_interest', 'establishment']"
Tandlægerne ved Runddelen,55.6947682,12.5483793,"['dentist', 'health', 'point_of_interest', 'establishment']"
Jagtvejens Blomster,55.6946668,12.5495045,"['florist', 'point_of_interest', 'store', 'establishment']"
Retro Cykler,55.69486999999999,12.549106,"['bicycle_store', 'point_of_interest', 'store', 'establishment']"
Fest & Farver København,55.6935209,12.5503455,"['point_of_interest', 'store', 'establishment']"
Julian Hansen,55.69358989999999,12.550212,"['point_of_interest', 'establishment']"
Hjerte Genbrug,55.693866,12.5498333,"['point_of_interest', 'store', 'establishment']"
The flying Dutchman,55.6953669,12.5513013,"['point_of_interest', 'establishment']"
Bog & idé Nørrebrogade,55.6952461,12.547267,"['book_store', 'point_of_interest', 'store', 'establishment']"
Lægehjørnet,55.6958317,12.5508087,"['doctor', 'health', 'point_of_interest', 'establishment']"
Leonora Blomster,55.69691899999999,12.5513301,"['florist', 'point_of_interest', 'store', 'establishment']"
Takii,55.696498,12.550941,"['restaurant', 'food', 'point_of_interest', 'establishment']"
Claus Tingstrøm A/S,55.696498,12.550941,"['food', 'point_of_interest', 'establishment']"
Pedrampour Peyman,55.6966038,12.5510686,"['doctor', 'health', 'point_of_interest', 'establishment']"
Livets Lys,55.69598399999999,12.553489,"['point_of_interest', 'establishment']"
REMA 1000,55.6957283,12.5508261,"['point_of_interest', 'store', 'establishment']"
Boogiebag-Creativ Graphics & Sound,55.69547739999999,12.5536771,"['point_of_interest', 'establishment']"
Hulahophuset,55.69499080000001,12.55003,"['point_of_interest', 'establishment']"
Tandlægeselskabet Søren Meinertz ApS,55.6959506,12.5509363,"['dentist', 'health', 'point_of_interest', 'establishment']"
Copenhagen Bikeshop,55.6959904,12.5509662,"['bicycle_store', 'point_of_interest', 'store', 'establishment']"
Cph Wood Design,55.69559129999999,12.5538086,"['point_of_interest', 'establishment']"
Studenterrådets Vuggestue,55.69617179999999,12.5512058,"['point_of_interest', 'establishment']"
Runddelens Bedemandsforretning,55.6957435,12.5501817,"['funeral_home', 'point_of_interest', 'establishment']"
WokAmok,55.695788,12.550234,"['restaurant', 'food', 'point_of_interest', 'establishment']"
Fitness World,55.69583410000001,12.5502897,"['gym', 'health', 'point_of_interest', 'establishment']"
A/B Odinsgade 16-20,55.6975901,12.549888,"['point_of_interest', 'establishment']"
Munksgaard plus ANDERSEN Bygherrerådgivning A / S,55.6969076,12.5500385,"['point_of_interest', 'establishment']"
Eye4web ApS,55.696406,12.5508942,"['point_of_interest', 'establishment']"
Copenhagen Beauty Clinic,55.69637709999999,12.5518065,"['point_of_interest', 'establishment']"
Mokkariet,55.69630479999999,12.5513546,"['cafe', 'restaurant', 'food', 'point_of_interest', 'store', 'establishment']"
Stjernestøvsuger v/Flemming Broch,55.69624700000001,12.551253,"['hardware_store', 'point_of_interest', 'store', 'establishment']"
Knudsen Christian Andreas,55.69643740000001,12.5515751,"['point_of_interest', 'establishment']"
Nordic Cowork,55.69643740000001,12.5515751,"['point_of_interest', 'establishment']"
"YESWEB - Marketing, Webdesign, Reklamer, Skilte, Brochure, Menukort, Kundelister og meget mere",55.69643740000001,12.5515751,"['point_of_interest', 'establishment']"
Flauntin ApS,55.69636,12.5513739,"['point_of_interest', 'establishment']"
Guldberg Skole,55.6963534,12.552955,"['school', 'point_of_interest', 'establishment']"
Børne- Og Ungdomstandplejen Guldberg Skole Tandklinik,55.6963794,12.5529781,"['dentist', 'health', 'point_of_interest', 'establishment']"
Manakish Alwadi,55.6962614,12.5507879,"['restaurant', 'food', 'point_of_interest', 'establishment']"
Lægerne Jagtvej 113,55.696498,12.550941,"['health', 'point_of_interest', 'establishment']"
Enra A/S Under Konkurs,55.6965449,12.5509956,"['point_of_interest', 'establishment']"
Xmas Urge Programmers,55.69611099999999,12.553453,"['point_of_interest', 'establishment']"
Det´ Elektrikeren ApS,55.69598399999999,12.553489,"['electrician', 'point_of_interest', 'establishment']"
Mevlana Restaurant,55.696887,12.5513845,"['restaurant', 'food', 'point_of_interest', 'establishment']"
Tolk Mohamed Attia Mohamed Sharak,55.6965795,12.5534126,"['point_of_interest', 'establishment']"
A-X-L Ejendomsservice ApS,55.69718599999999,12.55172,"['point_of_interest', 'establishment']"
IFIX MOBIL,55.695837,12.550196,"['point_of_interest', 'store', 'establishment']"
Pianist København. Oscar Gilbert.,55.696436,12.550299,"['electronics_store', 'home_goods_store', 'point_of_interest', 'store', 'establishment']"
Tommy Falkeøje,55.6958517,12.553971,"['point_of_interest', 'establishment']"
Als Scandinavia Filial af Als Scandinavia Sverige,55.6968265,12.5505534,"['point_of_interest', 'establishment']"
Centrum Service & Håndværk,55.696168,12.54994,"['point_of_interest', 'establishment']"
Ingeniørfirmaet Henrik Møgelgaard ApS,55.69693760000001,12.5533899,"['point_of_interest', 'establishment']"
Ellis Records v/Cecilie Enevold Nielsen,55.695683,12.549928,"['point_of_interest', 'establishment']"
Foreningen 'store Sko',55.69714130000001,12.5530209,"['shoe_store', 'point_of_interest', 'store', 'establishment']"
Daniel Schriver Photography,55.6956463,12.5541966,"['point_of_interest', 'establishment']"
designers juice,55.6974425,12.5510996,"['point_of_interest', 'establishment']"
Mariah Victori Design,55.69821710000001,12.5534561,"['point_of_interest', 'clothing_store', 'store', 'establishment']"
Spurt Cykler,55.6989037,12.5542647,"['bicycle_store', 'point_of_interest', 'store', 'establishment']"
Psykolog Ole Larsen,55.69795149999999,12.552041,"['health', 'point_of_interest', 'establishment']"
Bjerre,55.6980447,12.5527831,"['hair_care', 'point_of_interest', 'establishment']"
Oasen Arbejde Adlers Hus,55.69783199999999,12.549311,"['cafe', 'local_government_office', 'food', 'point_of_interest', 'establishment']"
Salon Ydun,55.6985087,12.5529087,"['hair_care', 'point_of_interest', 'establishment']"
Aida v/Raja Azad,55.698231,12.5497625,"['food', 'point_of_interest', 'establishment']"
Kivilai v/Mei-Chuan Lai,55.6986161,12.5507871,"['point_of_interest', 'establishment']"
Optisun,55.6984538,12.5506752,"['point_of_interest', 'establishment']"
Vuggestuen Guldberg,55.69723029999999,12.5548281,"['point_of_interest', 'establishment']"
Bjarke Johansen Photography,55.69741099999999,12.548849,"['point_of_interest', 'establishment']"
Glatteben.DK I/S,55.697441,12.551011,"['point_of_interest', 'establishment']"
Kvorning Møbelsnedkeri,55.69762859999999,12.5510742,"['point_of_interest', 'establishment']"
to'sk,55.697853,12.552534,"['food', 'point_of_interest', 'store', 'establishment']"
Miriam Ortwed,55.697287,12.550424,"['general_contractor', 'point_of_interest', 'establishment']"
Køkkenet v/Flemming Lybecker Petersen,55.6979415,12.5526557,"['restaurant', 'food', 'point_of_interest', 'establishment']"
Linda Herskov,55.69797740000001,12.5512567,"['point_of_interest', 'establishment']"
Playmaker Booking & Management ApS,55.697851,12.5508089,"['point_of_interest', 'establishment']"
Karim's Slagter,55.6980312,12.5527654,"['food', 'point_of_interest', 'store', 'establishment']"
Rolin Development ApS,55.696721,12.549995,"['point_of_interest', 'establishment']"
Onur Frugt v/Hasan Huseyin Kocer,55.6980981,12.5527428,"['point_of_interest', 'establishment']"
Niels Gammelgaard Design ApS,55.6975891,12.5546217,"['point_of_interest', 'establishment']"
Kirke og Film,55.666193,12.6172039,"['point_of_interest', 'establishment']"
Electro Max dryck och kokosolja sverige,55.665916,12.617449,"['point_of_interest', 'establishment']"
Jivana,55.665887,12.618453,"['point_of_interest', 'store', 'establishment']"
IT Konsulent Martin Tørnby,55.665368,12.615887,"['point_of_interest', 'establishment']"
Advokat Ahani,55.66576509999999,12.6179926,"['lawyer', 'point_of_interest', 'establishment']"
Rroza Ejendomsservice ApS,55.66576509999999,12.6179926,"['point_of_interest', 'establishment']"
SKØN HUD - Voks & hudpleje,55.66576509999999,12.6179926,"['beauty_salon', 'point_of_interest', 'establishment']"
Ejsbøl Law v/Henrik Ejsbøl,55.665515,12.614564,"['point_of_interest', 'establishment']"
82sa Denmark,55.66529809999999,12.5466072,"['point_of_interest', 'establishment']"
Vesterbro Svømmehal,55.6646034,12.5391522,"['point_of_interest', 'establishment']"
Personal Project,55.66652189999999,12.5459467,"['point_of_interest', 'establishment']"
Ambassadeur,55.66403879999999,12.5425871,"['bakery', 'restaurant', 'food', 'point_of_interest', 'store', 'establishment']"
Fritidshjemmet Krudtuglen (Selvejende Inst.),55.66508959999999,12.5415195,"['point_of_interest', 'establishment']"
Anden og Katten,55.66473500000001,12.544275,"['point_of_interest', 'establishment']"
Benni's Bar,55.6657488,12.5434865,"['bar', 'point_of_interest', 'establishment']"
PC Doktoren - Har du ondt i styresystemet? Ingen private kunder,55.6646647,12.5453824,"['point_of_interest', 'establishment']"
Butt's Køreskole,55.66357069999999,12.5422454,"['point_of_interest', 'establishment']"
BeHair,55.6636312,12.5427924,"['hair_care', 'point_of_interest', 'establishment']"
Inst. Tranformeren,55.66645799999999,12.5440114,"['school', 'point_of_interest', 'establishment']"
Fritidsklubben Uno,55.6651396,12.5403456,"['point_of_interest', 'establishment']"
Webnoir,55.6652606,12.5427285,"['point_of_interest', 'establishment']"
Sakura Baby (Vibeke Hybel Pedersen),55.66542159999999,12.5421535,"['clothing_store', 'point_of_interest', 'store', 'establishment']"
Vuggestuen Himmelblå,55.6647757,12.5403489,"['point_of_interest', 'establishment']"
Louise Sass,55.6645094,12.5430877,"['point_of_interest', 'establishment']"
BBB VVS & Entreprenør,55.6656134,12.5452348,"['general_contractor', 'point_of_interest', 'establishment']"
Future Dynamics v/Nicola Tollin,55.665351,12.543488,"['point_of_interest', 'establishment']"
Agent Freebird v/Tamo Anna El Moutamid,55.66576670000001,12.5441485,"['point_of_interest', 'establishment']"
Morten Hemmingsen Sørup,55.66444009999999,12.5453047,"['point_of_interest', 'establishment']"
A-Z Dantox Skadedyrsservice ApS,55.666239,12.544338,"['local_government_office', 'home_goods_store', 'point_of_interest', 'store', 'establishment']"
Andershjort.Net v/Anders Hjort Straarup,55.66551,12.544202,"['point_of_interest', 'establishment']"
Mai Sung Hee Sommer,55.66517899999999,12.5438379,"['point_of_interest', 'establishment']"
Murermester Peter Kildentoft,55.66359199999999,12.5448226,"['general_contractor', 'point_of_interest', 'establishment']"
Highscore Lab,55.6638044,12.5438581,"['point_of_interest', 'establishment']"
Vandteknologi ApS,55.6656711,12.5435227,"['point_of_interest', 'establishment']"
Rasmussen Pia,55.66396559999999,12.5447768,"['hair_care', 'point_of_interest', 'establishment']"
Eske Rex,55.6649906,12.5421305,"['point_of_interest', 'establishment']"
Elschner International ApS,55.6636034,12.5424192,"['point_of_interest', 'establishment']"
Andelsboligforeningen Dannevirke,55.66480960000001,12.5412235,"['point_of_interest', 'establishment']"
Festlastbiler.dk studenterkørsel,55.664854,12.543138,"['food', 'point_of_interest', 'establishment']"
La Coruna,55.66493819999999,12.5425615,"['restaurant', 'food', 'point_of_interest', 'establishment']"
Netværk Modermærkekræft,55.6654296,12.5428225,"['point_of_interest', 'establishment']"
Random Gardens v/C Y Frostholm,55.6645492,12.5429071,"['point_of_interest', 'establishment']"
Little Lake Prod.,55.66517899999999,12.5438379,"['point_of_interest', 'establishment']"
Stine Bidstrup Studio,55.66472299999999,12.543765,"['point_of_interest', 'establishment']"
Phikamphon ApS,55.6650576,12.5419775,"['point_of_interest', 'establishment']"
Birgitte Bjørn v/Birgitte A Pedersen,55.66493699999999,12.5441179,"['point_of_interest', 'establishment']"
Krystalhimlen,55.66450859999999,12.5423105,"['point_of_interest', 'establishment']"
Engineered Coffee,55.66435079999999,12.5429639,"['point_of_interest', 'establishment']"
SIGCHI.DK,55.66435079999999,12.5429639,"['point_of_interest', 'establishment']"
Birthe Lykkegaard Vedtofte,55.66563459999999,12.5434775,"['point_of_interest', 'establishment']"
Grammafon,55.6655306,12.5440281,"['point_of_interest', 'establishment']"
Bragagild,55.6655306,12.5440281,"['point_of_interest', 'establishment']"
Atze Peng,55.6658024,12.543023,"['bar', 'point_of_interest', 'establishment']"
AT Murerfirma,55.6653142,12.5416614,"['general_contractor', 'point_of_interest', 'establishment']"
cph-it,55.6652036,12.5415935,"['point_of_interest', 'establishment']"
Karina Noyons,55.6643273,12.5422015,"['jewelry_store', 'point_of_interest', 'store', 'establishment']"
Marika Almskou - Psykoterapeut,55.66506200000001,12.54448,"['health', 'point_of_interest', 'establishment']"
Minimarked,55.6641486,12.5426275,"['food', 'point_of_interest', 'store', 'establishment']"
Grief and loss v. Puk Elmkjær,55.665339,12.544521,"['health', 'point_of_interest', 'establishment']"
Photographer Mia Maria v/Mia Maria Petersen,55.66577059999999,12.5419145,"['point_of_interest', 'establishment']"
Cirkus Vintage ApS,55.6644126,12.5416015,"['clothing_store', 'point_of_interest', 'store', 'establishment']"
Flex Acoustics ApS,55.666053,12.542846,"['point_of_interest', 'establishment']"
InnovationsBørsen,55.66573500000001,12.544377,"['point_of_interest', 'establishment']"
Amazing Rocket,55.66573520000001,12.5443774,"['point_of_interest', 'establishment']"
Rumle Skafte v/Rumle T Skafte,55.6660176,12.5420485,"['point_of_interest', 'establishment']"
Secupt.DK I/S,55.6651,12.54504,"['point_of_interest', 'establishment']"
Kirk + Maarbjerg,55.6663574,12.54595,"['food', 'point_of_interest', 'establishment']"
Pladask v/Christina Matthiesen,55.665347,12.545508,"['point_of_interest', 'establishment']"
WhatWeDo Copenhagen,55.6659667,12.5444991,"['general_contractor', 'point_of_interest', 'establishment']"
Gårdlauget Liva Boulevard,55.66516,12.545745,"['point_of_interest', 'establishment']"
A Birch v/Anders Birch,55.665925,12.5447518,"['point_of_interest', 'establishment']"
Big Boy Art v/Niels Johnsen,55.665925,12.5447517,"['point_of_interest', 'establishment']"
Mass Inventions IVS,55.6639113,12.544484,"['point_of_interest', 'establishment']"
Søren Lose,55.664848,12.5463178,"['point_of_interest', 'establishment']"
Sangkompagniet v/Lisbeth Frederiksen,55.66356599999999,12.5440713,"['point_of_interest', 'establishment']"
Bechbruun Cph v/Ulla Bech-Bruun,55.666136,12.54464,"['point_of_interest', 'establishment']"
A/B Ingerslev II,55.6638044,12.5438581,"['point_of_interest', 'establishment']"
Nye Impulser I/S,55.6638174,12.5464538,"['beauty_salon', 'point_of_interest', 'establishment']"
iConcept,55.6637923,12.5463053,"['point_of_interest', 'establishment']"
A/B Jægerhuset 3,55.66374029999999,12.543384,"['point_of_interest', 'establishment']"
Lulas Bazaar,55.6635618,12.5446161,"['point_of_interest', 'establishment']"
Larsendesign/Ropeman,55.6636034,12.5424192,"['point_of_interest', 'establishment']"
CPH Trafikskole,55.6635279,12.5422117,"['point_of_interest', 'establishment']"
Busca Aps,55.6639223,12.5460615,"['point_of_interest', 'establishment']"
Sandra Odgaard,55.6639066,12.5416985,"['point_of_interest', 'establishment']"
2shine S.m.b.a,55.6641026,12.5414305,"['point_of_interest', 'establishment']"
A/B Vi-Tre,55.6647156,12.5462979,"['point_of_interest', 'establishment']"
Børneinstitutionen Lærkereden,55.66445299999999,12.5466274,"['school', 'point_of_interest', 'establishment']"
Dansk Scrabbleforening,55.6646201,12.5466471,"['point_of_interest', 'establishment']"
Hotel SKT. Annæ ApS,55.6812469,12.5917406,"['lodging', 'bar', 'restaurant', 'food', 'point_of_interest', 'establishment']"
71 Nyhavn Hotel,55.679355,12.593586,"['lodging', 'point_of_interest', 'establishment']"
Hotel Maritime,55.67749999999999,12.5894444,"['lodging', 'point_of_interest', 'establishment']"
Best Western Plus Hotel City,55.6773694,12.5891583,"['lodging', 'point_of_interest', 'establishment']"
Cap Horn,55.6804058,12.5894617,"['restaurant', 'food', 'point_of_interest', 'establishment']"
MS Mary -Nyhavn,55.6795599,12.5927349,"['lodging', 'point_of_interest', 'establishment']"
109,55.6789316,12.590436,"['point_of_interest', 'establishment']"
Geist,55.68128129999999,12.5863517,"['restaurant', 'food', 'point_of_interest', 'establishment']"
Trattoria Fiat,55.68135600000001,12.585954,"['bar', 'restaurant', 'food', 'point_of_interest', 'establishment']"
Toneart Interior ApS,55.681341,12.5879359,"['point_of_interest', 'establishment']"
Hotel Bethel,55.67944439999999,12.5908333,"['lodging', 'point_of_interest', 'establishment']"
Told & Snaps,55.6799765,12.5916691,"['restaurant', 'food', 'point_of_interest', 'establishment']"
Restaurant Els,55.68091,12.5877377,"['restaurant', 'food', 'point_of_interest', 'establishment']"
MASH,55.68186589999999,12.588371,"['restaurant', 'food', 'point_of_interest', 'establishment']"
King's New Square,55.680522,12.585957,"['tourist_attraction', 'park', 'point_of_interest', 'establishment']"
Det Kgl Kapels Forening,55.6783744,12.5874026,"['church', 'place_of_worship', 'point_of_interest', 'establishment']"
Skipperkroen,55.6802918,12.5898942,"['restaurant', 'food', 'point_of_interest', 'establishment']"
Nyhavns Færgekro,55.6807154,12.5882942,"['restaurant', 'food', 'point_of_interest', 'establishment']"
Damindra,55.678819,12.5908588,"['restaurant', 'food', 'point_of_interest', 'establishment']"
Zeleste,55.68094279999999,12.5882949,"['restaurant', 'food', 'point_of_interest', 'establishment']"
Restaurant Leonore Christine,55.6806417,12.5885866,"['bar', 'restaurant', 'food', 'point_of_interest', 'establishment']"
Fuego,55.6781016,12.5890488,"['restaurant', 'food', 'point_of_interest', 'establishment']"
I/S Ejd Store Strandstræde 19-21,55.68137099999999,12.5893458,"['point_of_interest', 'establishment']"
Schools of the Royal Danish Academy of Fine Arts,55.680234,12.5870231,"['point_of_interest', 'establishment']"
La Sirene,55.67979319999999,12.5918531,"['restaurant', 'food', 'point_of_interest', 'establishment']"
Tango & Vinos,55.6791583,12.5896917,"['restaurant', 'bar', 'food', 'point_of_interest', 'establishment']"
Bådteatret,55.6796042,12.5900845,"['point_of_interest', 'establishment']"
Hong Kong Bar,55.6806827,12.5884287,"['night_club', 'bar', 'point_of_interest', 'establishment']"
Charlottenborg Palace,55.6798255,12.5883008,"['art_gallery', 'tourist_attraction', 'museum', 'point_of_interest', 'establishment']"
Dansk Socialrådgiverforening,55.68081519999999,12.592169,"['point_of_interest', 'establishment']"
pure shop,55.68116860000001,12.5848751,"['point_of_interest', 'establishment']"
Hafnia Advokatfirma,55.6794977,12.5930138,"['lawyer', 'point_of_interest', 'establishment']"
Danish Silver,55.6816015,12.5881589,"['point_of_interest', 'store', 'establishment']"
Sunstone Life Science Ventures,55.68114629999999,12.5893179,"['finance', 'point_of_interest', 'establishment']"
Russell Reynolds Associates,55.6799475,12.5868881,"['point_of_interest', 'establishment']"
Klinik for Psykoterapi og Psykologisk Rådgivning V. Karina Wagtmann,55.679137,12.588371,"['health', 'point_of_interest', 'establishment']"
Royal Danish Art Academy Exhibition Space (Kunstakademiets Udstillingssted),55.6790445,12.5879541,"['art_gallery', 'point_of_interest', 'establishment']"
Nyhavnskroen,55.6799342,12.591332,"['restaurant', 'food', 'point_of_interest', 'establishment']"
Kunstakademiets Billedkunstskoler,55.680234,12.587023,"['university', 'point_of_interest', 'establishment']"
VIVE – Det Nationale Forsknings- og Analysecenter for Velfærd,55.6789316,12.590436,"['point_of_interest', 'establishment']"
Cafe & Kunst,55.681278,12.5890657,"['cafe', 'food', 'point_of_interest', 'establishment']"
Jakob Maraldo,55.681205,12.590175,"['doctor', 'health', 'point_of_interest', 'establishment']"
Cerco 4 ApS,55.67971069999999,12.5899235,"['real_estate_agency', 'point_of_interest', 'establishment']"
Vestey Foods,55.6791329,12.5887952,"['food', 'point_of_interest', 'establishment']"
WEBSHOP3 ApS,55.67961799999999,12.5900703,"['point_of_interest', 'establishment']"
Psykologpraksis Masja Dessau,55.67910939999999,12.5883463,"['health', 'point_of_interest', 'establishment']"
Eske Storm Goldsmith Design,55.68031449999999,12.5917161,"['jewelry_store', 'point_of_interest', 'store', 'establishment']"
Catalyst Teambuilding,55.68086400000001,12.5895088,"['point_of_interest', 'establishment']"
Dagbladenes Bureau,55.67840940000001,12.5892798,"['point_of_interest', 'establishment']"
Antique Toys,55.6812345,12.5897905,"['home_goods_store', 'point_of_interest', 'store', 'establishment']"
Rajissimo,55.6804606,12.5893416,"['food', 'point_of_interest', 'establishment']"
Phoenix Copenhagen,55.68288799999999,12.58893,"['lodging', 'point_of_interest', 'establishment']"
Scandic Front,55.68133940000001,12.5932303,"['lodging', 'bar', 'restaurant', 'food', 'point_of_interest', 'establishment']"
Aoc,55.6831915,12.5889923,"['restaurant', 'food', 'point_of_interest', 'establishment']"
Restaurant Vita,55.6826222,12.5861519,"['restaurant', 'food', 'point_of_interest', 'establishment']"
KhunJuk,55.6821885,12.5853534,"['bar', 'restaurant', 'food', 'point_of_interest', 'establishment']"
Odd Fellow Palæet,55.682886,12.589828,"['restaurant', 'food', 'point_of_interest', 'establishment']"
Den Lille Fede,55.6821689,12.5856745,"['restaurant', 'food', 'point_of_interest', 'establishment']"
Sydbank,55.681011,12.5846152,"['bank', 'atm', 'finance', 'point_of_interest', 'establishment']"
Royal Court Pharmacy,55.6831261,12.5865445,"['pharmacy', 'health', 'point_of_interest', 'store', 'establishment']"
Rebel,55.68340680000001,12.5871003,"['restaurant', 'food', 'point_of_interest', 'establishment']"
Bruun & Stengade,55.682121,12.590553,"['point_of_interest', 'establishment']"
Tipsbladet,55.6825503,12.5885833,"['point_of_interest', 'establishment']"
Psykologerne ved Kongens Nytorv,55.68261669999999,12.5866417,"['health', 'point_of_interest', 'establishment']"
"Sygeforsikringen ""danmark""",55.68196870000001,12.5865532,"['insurance_agency', 'health', 'point_of_interest', 'establishment']"
Copenhagen Contractors,55.68209329999999,12.5906371,"['general_contractor', 'point_of_interest', 'establishment']"
Frisør Feel Good,55.681964,12.588455,"['hair_care', 'point_of_interest', 'establishment']"
Lautrup Chemicals,55.6816379,12.5878875,"['point_of_interest', 'establishment']"
KEARNEY,55.68202960000001,12.5911572,"['point_of_interest', 'establishment']"
