name,lat,lng,type
Copenhagen,55.6760968,12.5683371,"['locality', 'political']"
Julsø Byggeri Aps,55.6411586,12.5869308,"['point_of_interest', 'establishment']"
LK Media,55.64315759999999,12.5870632,"['point_of_interest', 'establishment']"
Eat Event Aps,55.641423,12.5849115,"['food', 'point_of_interest', 'establishment']"
Mercedes-Benz Financial Services Denmark A / S,55.641423,12.584912,"['finance', 'point_of_interest', 'establishment']"
Just Mokka,55.641423,12.5849115,"['point_of_interest', 'establishment']"
Intelecom Denmark A / S,55.641423,12.5849115,"['point_of_interest', 'establishment']"
Badmintonklubben Triton Vester Mariendal Skole,55.64251299999999,12.587771,"['point_of_interest', 'establishment']"
V. Guldmann A/S,55.6411189,12.584735,"['point_of_interest', 'establishment']"
Sammenslutningen af Lokalarkiver I København,55.6431256,12.5870521,"['point_of_interest', 'establishment']"
ABJ Malerentreprice,55.64040800000001,12.588004,"['painter', 'point_of_interest', 'establishment']"
Malermester Michael Midtgaard,55.6434928,12.5887512,"['painter', 'point_of_interest', 'establishment']"
Profusion Art Glass,55.64301440000001,12.5894145,"['point_of_interest', 'establishment']"
Dragør Spildevand A/S,55.63986300000001,12.584187,"['point_of_interest', 'establishment']"
HOFOR,55.63986300000001,12.584187,"['point_of_interest', 'establishment']"
Kullerup Kurser Støtteforening,55.6395838,12.5863604,"['point_of_interest', 'establishment']"
Cirkeldans,55.6395838,12.5863604,"['school', 'point_of_interest', 'establishment']"
JAPI Trafikskole - Køreskole centralt på Amager,55.6404316,12.5893067,"['point_of_interest', 'establishment']"
F. F. Gulve v/Frank Egon Falkbøll,55.6397595,12.58781,"['home_goods_store', 'point_of_interest', 'store', 'establishment']"
København S,55.6508754,12.5991891,"['sublocality_level_1', 'sublocality', 'political']"
Psychiatric center Amager,55.64326000000001,12.5855184,"['hospital', 'health', 'point_of_interest', 'establishment']"
CWT Danmark A/S,55.6395681,12.5842044,"['travel_agency', 'point_of_interest', 'establishment']"
Ke Holding A/S,55.63986300000001,12.584187,"['point_of_interest', 'establishment']"
Digevej (Vejlands Allé),55.641386,12.5866672,"['transit_station', 'point_of_interest', 'establishment']"
Al Forretning,55.64174059999999,12.5871817,"['point_of_interest', 'establishment']"
Digevej (Vejlands Allé),55.6414959,12.5868998,"['transit_station', 'point_of_interest', 'establishment']"
Digevej (Vejlands Allé),55.6412753,12.5864504,"['transit_station', 'point_of_interest', 'establishment']"
Copenhagen Ebike Center ApS,55.641423,12.5849115,"['point_of_interest', 'establishment']"
Restaurant Frihavn,55.6414902,12.58477,"['point_of_interest', 'establishment']"
Barona,55.6414902,12.58477,"['point_of_interest', 'establishment']"
Business Center Ørestad,55.6414902,12.58477,"['point_of_interest', 'establishment']"
Forenom Aps,55.6414902,12.58477,"['point_of_interest', 'establishment']"
Emirates Holidays,55.6414902,12.58477,"['travel_agency', 'point_of_interest', 'establishment']"
AKT II,55.6414902,12.58477,"['point_of_interest', 'establishment']"
Fleetboard,55.6414902,12.58477,"['car_dealer', 'point_of_interest', 'store', 'establishment']"
Forenom Office,55.6414902,12.58477,"['point_of_interest', 'establishment']"
Hedegaard & Engel v/Jesper Hedegaard Engel,55.6414902,12.58477,"['point_of_interest', 'establishment']"
Energy optimization Copenhagen,55.64120330000001,12.5869043,"['general_contractor', 'point_of_interest', 'establishment']"
Havil Business House v/K. Majeed,55.6410659,12.5863404,"['point_of_interest', 'establishment']"
Årets Store Ramadanmiddag,55.6410659,12.5863404,"['point_of_interest', 'establishment']"
Ubc af 7/10 1994 ApS,55.6431256,12.5870521,"['point_of_interest', 'establishment']"
2game-Cb-Uno Plast,55.6431256,12.5870521,"['point_of_interest', 'establishment']"
Lægerne kirkegårdsvej,55.64326000000001,12.5855184,"['point_of_interest', 'establishment']"
Udskrevet,55.64326000000001,12.5855184,"['point_of_interest', 'establishment']"
Region Hovedstaden,55.64326000000001,12.5855184,"['local_government_office', 'point_of_interest', 'establishment']"
Jespers Torvekøkken ApS,55.64326000000001,12.5855184,"['food', 'point_of_interest', 'establishment']"
Fond Til Lægevidenskabeligt Arbejde På Amager Hospitals Psykiatrisk Afdeling,55.64326000000001,12.5855184,"['point_of_interest', 'establishment']"
Psykiatrisk Center Amager Eurest Services,55.64326000000001,12.5855184,"['hospital', 'health', 'point_of_interest', 'establishment']"
Grundejerforeningen Lindegaarden,55.6409526,12.5878572,"['point_of_interest', 'establishment']"
HOFOR fjernkølecentral,55.6405882,12.5852955,"['point_of_interest', 'establishment']"
Grundejerforeningen Vestervang,55.6431884,12.5876524,"['point_of_interest', 'establishment']"
Lyon Autodele ApS,55.64303409999999,12.5882045,"['point_of_interest', 'establishment']"
VLH.,55.64033440000001,12.5856643,"['point_of_interest', 'establishment']"
Kjøbenhavns Understøttelsesforening,55.643592,12.587056,"['point_of_interest', 'establishment']"
Sauntes Venneforening,55.643592,12.587056,"['point_of_interest', 'establishment']"
Stjernen B&B,55.64321400000001,12.5883217,"['lodging', 'point_of_interest', 'establishment']"
Sitenhance v/Casper Steinhauer,55.6432386,12.5883264,"['point_of_interest', 'establishment']"
Jørgensen Christian Eggert,55.643596,12.587517,"['church', 'place_of_worship', 'point_of_interest', 'establishment']"
Foreningen Kulturhavn,55.643596,12.587517,"['point_of_interest', 'establishment']"
Amager Division Det Danske Spejderkorps,55.643596,12.587517,"['point_of_interest', 'establishment']"
Københavns SkadedyrsService,55.6383079,12.5899432,"['home_goods_store', 'point_of_interest', 'store', 'establishment']"
Cool Accounts ApS,55.63942280000001,12.5886757,"['accounting', 'finance', 'point_of_interest', 'establishment']"
Netto,55.6391667,12.5891667,"['grocery_or_supermarket', 'supermarket', 'food', 'point_of_interest', 'store', 'establishment']"
Ejerforeningen Sundby Overdrev,55.63881910000001,12.5868553,"['point_of_interest', 'establishment']"
Arkitekternes Pensionskasse,55.6383691,12.5890804,"['point_of_interest', 'establishment']"
Beboerforeningen Tuelandsvænge,55.6383691,12.5890804,"['point_of_interest', 'establishment']"
Garderforeningen I København,55.63881910000001,12.5868553,"['point_of_interest', 'establishment']"
Mads Vestergaard,55.638341,12.589802,"['point_of_interest', 'establishment']"
Bomuldsdyret,55.638324,12.590087,"['point_of_interest', 'establishment']"
Forward,55.63847089999999,12.5855362,"['health', 'point_of_interest', 'establishment']"
Danske Harmonikaspilleres Landsforbund,55.64172310000001,12.5926011,"['point_of_interest', 'establishment']"
Quick Money Transfer & Travel v/ Mohammed Asif,55.639025,12.59101,"['finance', 'point_of_interest', 'establishment']"
Gårdfæstevej (Kongelundsvej),55.6403,12.5890559,"['transit_station', 'point_of_interest', 'establishment']"
Charlottes Køreskole v/Charlotte Knoblauch,55.6404127,12.5893645,"['point_of_interest', 'establishment']"
Gårdfæstevej (Kongelundsvej),55.6401207,12.5890315,"['transit_station', 'point_of_interest', 'establishment']"
Designkat,55.63994870000001,12.5892596,"['point_of_interest', 'establishment']"
Top Style,55.6399431,12.5892745,"['hair_care', 'point_of_interest', 'establishment']"
Parkering Hofor,55.6400915,12.5887582,"['parking', 'point_of_interest', 'establishment']"
Kiosk 36,55.63993629999999,12.5887508,"['point_of_interest', 'store', 'establishment']"
Ruprecht / Susan,55.64024810000001,12.5892695,"['point_of_interest', 'establishment']"
Moo Moo Ice Cream Bar Kongelundsvej,55.64023819999999,12.5893908,"['bakery', 'food', 'point_of_interest', 'store', 'establishment']"
Kongelundsparken I ApS,55.6396846,12.5887137,"['point_of_interest', 'establishment']"
Skandinavisk Parfume Export ApS,55.6404047,12.5885766,"['point_of_interest', 'clothing_store', 'store', 'establishment']"
Gårdfæstevej (Kongelundsvej),55.640479,12.5890802,"['transit_station', 'point_of_interest', 'establishment']"
Sørensen Ulrik (Automekaniker),55.64046070000001,12.5893696,"['point_of_interest', 'establishment']"
Havana Catering,55.63954949999999,12.5886859,"['point_of_interest', 'establishment']"
Clean Diamond,55.63954949999999,12.5886859,"['laundry', 'point_of_interest', 'establishment']"
Trafz v/Joen Jacob Á Bö Olsen,55.64061779999999,12.5888133,"['point_of_interest', 'establishment']"
Adem Vinduespolering og Trappevask v/Adem Akar,55.64061779999999,12.5888133,"['point_of_interest', 'establishment']"
Corsel Holding ApS,55.640213,12.590053,"['finance', 'point_of_interest', 'establishment']"
FEGU,55.63942280000001,12.5886757,"['point_of_interest', 'establishment']"
Numero Regnskab,55.63942280000001,12.5886757,"['clothing_store', 'point_of_interest', 'store', 'establishment']"
Steiner Plan v/Lajos Csaba Steiner,55.63942279999999,12.5886758,"['bus_station', 'transit_station', 'point_of_interest', 'establishment']"
Balogh Communications,55.63942279999999,12.5886758,"['point_of_interest', 'establishment']"
Anders Stav Hansen,55.64066039999999,12.5893897,"['point_of_interest', 'establishment']"
Ungdomsuddannelsernes Vejlederforening,55.64066039999999,12.5893897,"['point_of_interest', 'establishment']"
P5 Ejendomme ApS,55.6399848,12.5877708,"['point_of_interest', 'establishment']"
STED ▪ SANS,55.639776,12.5902157,"['point_of_interest', 'establishment']"
for Grundejerforeningen Chr. D. IV,55.6400721,12.5904473,"['point_of_interest', 'establishment']"
Spangsberg chokolade,55.6409292,12.5889403,"['grocery_or_supermarket', 'food', 'point_of_interest', 'store', 'establishment']"
Ejerforeningen Kongelundsvej 49-55,55.63903,12.589309,"['point_of_interest', 'establishment']"
Ryan Christensen ApS,55.6405888,12.5906512,"['point_of_interest', 'establishment']"
Irene Lydersen,55.6405888,12.5906512,"['point_of_interest', 'establishment']"
Global Rengøring v/N.Kanth,55.64098979999999,12.5901672,"['point_of_interest', 'establishment']"
Tekniservice/Gunnar Østergreen-Johansen,55.639525,12.5870162,"['point_of_interest', 'establishment']"
Lejerbo København Afdeling 088-0 Kongelundsvej,55.6387377,12.5885711,"['point_of_interest', 'establishment']"
Grundejerforeningen Ordrup Mølle,55.6409875,12.5905546,"['point_of_interest', 'establishment']"
B'nai B'rith Danmark Loge,55.638926,12.58763,"['point_of_interest', 'establishment']"
Boligpension,55.6388414,12.5902155,"['point_of_interest', 'establishment']"
HotelKortet.dk - 1 Sprint Projects,55.6383591,12.5841562,"['travel_agency', 'point_of_interest', 'establishment']"
Fennel v/Priya Mani,55.63842979999999,12.5840394,"['bus_station', 'transit_station', 'point_of_interest', 'establishment']"
Bona Vina,55.6384047,12.5838231,"['point_of_interest', 'establishment']"
Psykoterapeut Marianne Fogh Møller,55.6385748,12.5836085,"['point_of_interest', 'establishment']"
FRI DIT HJERTERUM,55.6384273,12.5836269,"['health', 'point_of_interest', 'establishment']"
Lejerbo København Afdeling 088-1 Kongelundsvej,55.637358,12.586819,"['point_of_interest', 'establishment']"
Spejderne,55.637271,12.585508,"['point_of_interest', 'establishment']"
Sweco,55.63752079999999,12.5835971,"['point_of_interest', 'establishment']"
Bella Center Metro Station,55.6379883,12.5827205,"['point_of_interest', 'establishment']"
Den Blå Diamant v/Maibritt S Madsen,55.637275,12.588456,"['point_of_interest', 'establishment']"
Skål International Copenhagen,55.63815020000001,12.5822406,"['point_of_interest', 'establishment']"
"Kingdom, Nursery and Kindergarten",55.63706500000001,12.5890602,"['school', 'point_of_interest', 'establishment']"
Ørestad Klinik for Fodterapi - fodexpert.dk,55.6383979,12.5835628,"['doctor', 'health', 'point_of_interest', 'establishment']"
Kemp & Konen Vin,55.6364487,12.5868331,"['point_of_interest', 'establishment']"
DONG Energy City Elnet A/S Ørestaden,55.63986300000001,12.584187,"['point_of_interest', 'establishment']"
Kastrup Tårnby Skytteforening,55.6387661,12.5861739,"['point_of_interest', 'establishment']"
Kastrup Rotary Klub,55.6387521,12.5863309,"['point_of_interest', 'establishment']"
Jømu ApS,55.6387358,12.5865319,"['point_of_interest', 'establishment']"
Jørgen Nees Entreprise ApS,55.6387358,12.5865319,"['point_of_interest', 'establishment']"
DK NH Invest Aps,55.6394579,12.5859569,"['point_of_interest', 'establishment']"
Emil Nicolaj Frøding,55.638686,12.586925,"['point_of_interest', 'establishment']"
Rankenberg Com v/Susanna Rebecka Rankenberg,55.6396519,12.5866802,"['point_of_interest', 'establishment']"
Filip Rankenberg,55.6396519,12.5866802,"['point_of_interest', 'establishment']"
Frk.Mie Holding ApS,55.63979029999999,12.5861097,"['point_of_interest', 'establishment']"
Mohammad Nawaz,55.6382127,12.5866405,"['point_of_interest', 'establishment']"
Amager Skakforening Junior,55.638706,12.587467,"['point_of_interest', 'establishment']"
Gade Annette & Jens,55.638706,12.587467,"['point_of_interest', 'establishment']"
Coordination Committee For Polish-Jewish Youth In Denmark,55.638527,12.587435,"['point_of_interest', 'establishment']"
Jong Import v/Jong Asger Hjord,55.6383269,12.5844603,"['point_of_interest', 'establishment']"
Madewithlove,55.63790249999999,12.5866486,"['point_of_interest', 'establishment']"
Københavns Bueskyttelaug,55.6383497,12.5842477,"['point_of_interest', 'establishment']"
Senses Bikram Yoga,55.6920215,12.5661884,"['gym', 'health', 'point_of_interest', 'establishment']"
STORM & MARIE,55.69200069999999,12.5655433,"['point_of_interest', 'clothing_store', 'store', 'establishment']"
Applus Bilsyn,55.69427080000001,12.5705445,"['local_government_office', 'car_repair', 'point_of_interest', 'establishment']"
Danske Lægers Vaccinations Service,55.6940279,12.5701491,"['hospital', 'doctor', 'health', 'point_of_interest', 'establishment']"
The Social Agency,55.6947124,12.5693764,"['point_of_interest', 'establishment']"
Blegdams Cykler,55.693216,12.5659895,"['bicycle_store', 'point_of_interest', 'store', 'establishment']"
Touchpoint Zoneterapi,55.6927616,12.5668262,"['health', 'point_of_interest', 'establishment']"
Børnehuset Krummerne,55.6928752,12.56622,"['school', 'point_of_interest', 'establishment']"
Ristorante Nino e Franco,55.6930713,12.565636,"['restaurant', 'food', 'point_of_interest', 'establishment']"
Luca's Cykler,55.6930269,12.5670081,"['bicycle_store', 'point_of_interest', 'store', 'establishment']"
Quick Driving School - Driving School in Copenhagen,55.693383,12.566256,"['point_of_interest', 'establishment']"
Society for Men's Health,55.695462,12.56734,"['point_of_interest', 'establishment']"
Lifecoach ApS,55.6941661,12.5699016,"['health', 'point_of_interest', 'establishment']"
"BitSpot - Pro courses in Photoshop, InDesign & Illustrator",55.6936858,12.570109,"['university', 'point_of_interest', 'establishment']"
Sapore d'Italia,55.69342109999999,12.5663256,"['restaurant', 'food', 'point_of_interest', 'establishment']"
Humbug Film v/A. Jensen,55.6929429,12.5670622,"['point_of_interest', 'establishment']"
Pink Orchid Wellness,55.69320819999999,12.5667181,"['point_of_interest', 'establishment']"
Panum - University of Copenhagen,55.6936268,12.565659,"['university', 'point_of_interest', 'establishment']"
Indre By,55.6800939,12.5800086,"['sublocality_level_2', 'sublocality', 'political']"
Kokken i kælderen,55.69314199999999,12.566804,"['meal_takeaway', 'restaurant', 'food', 'point_of_interest', 'establishment']"
Quicktryk ApS,55.6930894,12.565687,"['point_of_interest', 'establishment']"
Foreningen Studenterklubben,55.69329199999999,12.565089,"['point_of_interest', 'establishment']"
Handyguy v/Jesper Høyer Hansen,55.6929725,12.5654468,"['point_of_interest', 'establishment']"
soait aps,55.6929713,12.5654486,"['point_of_interest', 'establishment']"
Jakobtaarnskov.Com v/Jakob Emil Taarnskov,55.6926202,12.567619,"['point_of_interest', 'establishment']"
Life Healing F.m.b.a,55.6941,12.569748,"['point_of_interest', 'establishment']"
Thodberg Consult,55.693023,12.569076,"['point_of_interest', 'establishment']"
Region Hovedstaden,55.6955422,12.5673704,"['local_government_office', 'point_of_interest', 'establishment']"
Center for Ernæring og Terapi ApS,55.6923463,12.5670661,"['school', 'point_of_interest', 'establishment']"
Filosofisk Praksis,55.6941,12.5697479,"['point_of_interest', 'establishment']"
Gitte Damgaard Christensen,55.6941,12.5697479,"['health', 'point_of_interest', 'establishment']"
FROMBERG: Grafisk design & illustration,55.69473959999999,12.569745,"['point_of_interest', 'establishment']"
Einar Lundsgaard Auditorium,55.69367179999999,12.5642685,"['university', 'point_of_interest', 'establishment']"
Emil Lyders,55.692302,12.5681307,"['point_of_interest', 'establishment']"
Suwision v/Toke Kristian Suhr,55.6925029,12.5679036,"['point_of_interest', 'establishment']"
M Thorsteds Tegnestue,55.692561,12.5657859,"['point_of_interest', 'establishment']"
Galleri Comicart.dk,55.694498,12.569688,"['art_gallery', 'point_of_interest', 'establishment']"
Koncept Mæglerne ApS,55.6924966,12.5679517,"['real_estate_agency', 'point_of_interest', 'establishment']"
Frida Frank (Indretningsarkitekt M D D),55.6922557,12.566951,"['point_of_interest', 'establishment']"
Dansk Karkirurgisk Selskab,55.6956405,12.5671921,"['point_of_interest', 'establishment']"
Certo Consulting v/Pia Grethe Nielsen,55.6923463,12.5670661,"['point_of_interest', 'establishment']"
Initiativ For Liv,55.69259899999999,12.565408,"['point_of_interest', 'establishment']"
bitmedia,55.6936858,12.570109,"['point_of_interest', 'establishment']"
Ihedge A/S,55.694776,12.569698,"['point_of_interest', 'establishment']"
Otcweb ApS,55.694776,12.569698,"['point_of_interest', 'establishment']"
Foreningen Gerningsstedet,55.694776,12.569698,"['point_of_interest', 'establishment']"
Eface Aps,55.6924663,12.565601,"['point_of_interest', 'establishment']"
Grafiliokus v/Anne-Mette Thomsen,55.6924663,12.565601,"['point_of_interest', 'establishment']"
Pernille Lykkegaard,55.69265170000001,12.5648668,"['point_of_interest', 'establishment']"
Kingswood v/Anders Lund,55.6922557,12.566951,"['point_of_interest', 'establishment']"
RefLab,55.695981,12.566608,"['point_of_interest', 'establishment']"
Fredens Kælder,55.69238170000001,12.5681675,"['food', 'point_of_interest', 'establishment']"
Ahlblad Arkitekter & Ingeniører ApS,55.69265170000001,12.5648668,"['point_of_interest', 'establishment']"
Apoteker Julius Waels og Cand.Pharm. Helga Waels Fond,55.6929173,12.5644822,"['point_of_interest', 'establishment']"
FADL København,55.692517,12.564703,"['point_of_interest', 'establishment']"
Nanna Ewald Stigel,55.6921733,12.5668356,"['health', 'point_of_interest', 'establishment']"
Ditzel Nanna (Arkitekt),55.6944951,12.5702132,"['point_of_interest', 'establishment']"
Redcom Aps,55.6922213,12.567341,"['point_of_interest', 'establishment']"
Am Service,55.693973,12.5702204,"['point_of_interest', 'establishment']"
Dansk Selskab For Affektive Lidelser,55.695981,12.566608,"['point_of_interest', 'establishment']"
Dansk Transplantationsselskab,55.695981,12.566608,"['hospital', 'health', 'point_of_interest', 'establishment']"
Dansk Råd For Genoplivning Att. Overlæge Freddy Lippert Anæstisi- Ogoperationsklinikken Hoc 4231,55.6959446,12.5667031,"['point_of_interest', 'establishment']"
Rigshospitalet,55.6960841,12.5667877,"['hospital', 'health', 'point_of_interest', 'establishment']"
"Rigshospitalet, opgang 2",55.696951,12.5666037,"['hospital', 'health', 'point_of_interest', 'establishment']"
miniauditorium_1,55.6950632,12.5620287,"['university', 'point_of_interest', 'establishment']"
Auditorium 3,55.695066,12.562024,"['university', 'point_of_interest', 'establishment']"
Neurobiologisk Forskningsenhed,55.69765659999999,12.5630932,"['point_of_interest', 'establishment']"
Studievejledningen,55.6943866,12.5625903,"['university', 'point_of_interest', 'establishment']"
International Relations Office,55.69427390000001,12.5625925,"['university', 'point_of_interest', 'establishment']"
Skolen for klinikassistenter og tandplejere,55.69479459999999,12.5616234,"['school', 'point_of_interest', 'establishment']"
Cuban Dance School & Event,55.69404170000001,12.5629888,"['point_of_interest', 'establishment']"
Center for Cancer and Health Copenhagen,55.695481,12.5609352,"['health', 'point_of_interest', 'establishment']"
København Ø,55.7096303,12.5768655,"['sublocality_level_1', 'sublocality', 'political']"
Kaffebar Shabaz,55.6936883,12.5636372,"['cafe', 'food', 'point_of_interest', 'establishment']"
Rigshospitalet's Chapel,55.6982301,12.5667849,"['church', 'place_of_worship', 'point_of_interest', 'establishment']"
Børnehus Hovedstaden,55.69510409999999,12.5608399,"['health', 'point_of_interest', 'establishment']"
Ku - Sund - Teilum - Kbh Ø,55.6983825,12.566358,"['university', 'point_of_interest', 'establishment']"
Match My Thesis,55.6947981,12.5609984,"['point_of_interest', 'establishment']"
SUND Hub,55.694786,12.561006,"['university', 'point_of_interest', 'establishment']"
Adolf Hannover auditorium,55.69478859999999,12.560982,"['university', 'point_of_interest', 'establishment']"
One Open Sky,55.69440960000001,12.56819,"['point_of_interest', 'store', 'establishment']"
Odontologisk Forening,55.694795,12.5616124,"['point_of_interest', 'establishment']"
7-Eleven,55.69602309999999,12.5665622,"['convenience_store', 'food', 'point_of_interest', 'store', 'establishment']"
Klub 402 5601 Rigshospitalet,55.695981,12.566608,"['point_of_interest', 'establishment']"
Rigshospitalets traumecenter og akutmodtagelse,55.695981,12.566608,"['hospital', 'health', 'point_of_interest', 'establishment']"
Academic Books,55.69479399999999,12.5616377,"['book_store', 'point_of_interest', 'store', 'establishment']"
Nationalt Videnscenter for Demens,55.69691899999999,12.5676081,"['point_of_interest', 'establishment']"
Ronald McDonald BørneFond,55.696046,12.56499,"['point_of_interest', 'establishment']"
Ronald McDonald Hus,55.696046,12.56499,"['point_of_interest', 'establishment']"
Amorparken,55.6955576,12.5645985,"['park', 'point_of_interest', 'establishment']"
Region Hovedstadens Apotek,55.6964592,12.5648329,"['pharmacy', 'health', 'point_of_interest', 'store', 'establishment']"
The Mother by Carl J. Bonnesen,55.69546560000001,12.5644756,"['point_of_interest', 'establishment']"
Rigshospitalet Opgang 42,55.69559229999999,12.5657509,"['hospital', 'health', 'point_of_interest', 'establishment']"
Espresso House,55.6955777,12.5657993,"['cafe', 'food', 'point_of_interest', 'store', 'establishment']"
"Rigshospitalet, opgang 4",55.6955777,12.5657992,"['hospital', 'health', 'point_of_interest', 'establishment']"
EMSB,55.6964058,12.5638407,"['point_of_interest', 'establishment']"
hazmat.dk,55.6964058,12.5638407,"['point_of_interest', 'establishment']"
Copenhagen Critical Care Symposium 2019,55.6964058,12.5638407,"['hospital', 'health', 'point_of_interest', 'establishment']"
Paediatric Trauma Symposium,55.6964058,12.5638407,"['point_of_interest', 'establishment']"
PlayPedia,55.6964058,12.5638407,"['point_of_interest', 'store', 'establishment']"
emergency.dk,55.6964058,12.5638407,"['point_of_interest', 'establishment']"
Rigshospitalets Rejse- og Vaccinationsservice,55.69664479999999,12.5640419,"['hospital', 'health', 'point_of_interest', 'establishment']"
Rigshospitalet Auditorium 1,55.69680479999999,12.5655136,"['point_of_interest', 'establishment']"
Danske Bank Pengeautomat,55.6960231,12.5665621,"['atm', 'finance', 'point_of_interest', 'establishment']"
Smertecentrets Forskningskonto,55.6960231,12.5665621,"['bus_station', 'transit_station', 'point_of_interest', 'establishment']"
K.H.Køster Lecture Fund,55.695981,12.566608,"['point_of_interest', 'establishment']"
Rigshospitalets Idrætsforening,55.695981,12.566608,"['hospital', 'health', 'point_of_interest', 'establishment']"
Dasaim Overlæge Susanne Wammen Anæstesi- Og Operatonsklinikken,55.695981,12.566608,"['hospital', 'health', 'point_of_interest', 'establishment']"
Fundats For Dansk Selskab For Klinisk Onkologis Jubilæumsfond,55.695981,12.566608,"['point_of_interest', 'establishment']"
Scandinavian Neuropathological Society,55.695981,12.566608,"['point_of_interest', 'establishment']"
Studiefonden,55.6981742,12.561301,"['point_of_interest', 'establishment']"
Dark Cosmology Centre,55.6979871,12.5629887,"['university', 'point_of_interest', 'establishment']"
Nørre Campus (Tagensvej),55.6962868,12.5614812,"['transit_station', 'point_of_interest', 'establishment']"
Rigshospitalet Administration,55.696717,12.5639184,"['point_of_interest', 'establishment']"
Nørre Campus (Tagensvej),55.69586349999999,12.5624298,"['transit_station', 'point_of_interest', 'establishment']"
Clever Charging Station,55.69691899999999,12.5644008,"['point_of_interest', 'establishment']"
Infektionsmedicinsk Ambulatorium 8622,55.696984,12.563961,"['hospital', 'health', 'point_of_interest', 'establishment']"
Laboratorium F Genterapiforskning,55.696984,12.563961,"['point_of_interest', 'establishment']"
Neuromuscular Research Unit,55.6954504,12.5625041,"['point_of_interest', 'establishment']"
Rigshospitalets Patienthotel,55.6966195,12.5644451,"['hospital', 'health', 'point_of_interest', 'establishment']"
Hans Wilhelm Meyer by W.M. Runeberg og Vilhelm Bissen,55.69682539999999,12.5628252,"['point_of_interest', 'establishment']"
Frederik Bajer and Mathilde Bajer by Einar Utzon-Frank,55.6965673,12.5621041,"['point_of_interest', 'establishment']"
Patienthotellet - Rigshospitalet,55.6971616,12.5631986,"['lodging', 'point_of_interest', 'establishment']"
Edel Sauntes Alle 1 (Bikuben),55.698942,12.5623813,"['point_of_interest', 'establishment']"
Public Bathroom,55.6989933,12.5623671,"['point_of_interest', 'establishment']"
Skateparkens toilet,55.6995467,12.5637767,"['point_of_interest', 'establishment']"
Københavns Kommune,55.6995467,12.5637767,"['city_hall', 'local_government_office', 'point_of_interest', 'establishment']"
"KU Studenteridræt, KSI",55.6984042,12.5614038,"['point_of_interest', 'establishment']"
Det Danske Pasteur-Selskab,55.697258,12.563492,"['point_of_interest', 'establishment']"
Angelus Novus by Bjørn Poulsen,55.6972171,12.5632085,"['point_of_interest', 'establishment']"
"Infektionsmedicinsk Akutmodtagelse, 5604 - Coronatest",55.6972313,12.5648492,"['hospital', 'health', 'point_of_interest', 'establishment']"
Rigshospitalets Ernæringsenhed 57 11,55.6975865,12.564,"['hospital', 'health', 'point_of_interest', 'establishment']"
Rigshospitalet,55.69715890000001,12.5650814,"['hospital', 'health', 'point_of_interest', 'establishment']"
Corona test (Rigshospitalet),55.69722909999999,12.5650955,"['doctor', 'health', 'point_of_interest', 'establishment']"
Neuromuscular Clinic,55.697636,12.5632583,"['point_of_interest', 'establishment']"
Rh´s Overlægeforening,55.69720239999999,12.5653202,"['point_of_interest', 'establishment']"
Jesper Rohmanns Mindefond,55.69720239999999,12.5653202,"['point_of_interest', 'establishment']"
Overlæge Kaj Fischermans Fond,55.69720239999999,12.5653202,"['point_of_interest', 'establishment']"
Overlæge Hess Thaysen og Hustrus Fond Til Medicinsk Klinik Forskn.,55.69720239999999,12.5653202,"['point_of_interest', 'establishment']"
Psykiatrisk Forskningsfond af 1967 Sekr Heller Kastbjerg,55.69720239999999,12.5653202,"['point_of_interest', 'establishment']"
Bjørn Aastrup's Fond Til Aids Forskning,55.69720239999999,12.5653202,"['point_of_interest', 'establishment']"
Fonden Til Fremme af Kirurgisk On-Kologisk Forskning Især Indenfor Bækkenkirurgi,55.69720239999999,12.5653202,"['point_of_interest', 'establishment']"
"Psykiatrisk Auditorium, Rigshospitalet",55.69776100000001,12.5637655,"['point_of_interest', 'establishment']"
Joannes Petersen,55.6965045,12.55903,"['point_of_interest', 'establishment']"
Yogagear.dk,55.69696070000001,12.5589104,"['store', 'point_of_interest', 'establishment']"
"Rigshospitalets Tværfaglige Smertecenter, Afsnit 7612",55.6986839,12.5598985,"['hospital', 'health', 'point_of_interest', 'establishment']"
Studentergårdens Portforretning,55.6971874,12.5585574,"['university', 'point_of_interest', 'establishment']"
Konservator Karin Wegener Tams Forlaget - Agurk,55.69717730000001,12.5585174,"['point_of_interest', 'establishment']"
Astanga Yoga Studio,55.69696070000001,12.5589104,"['gym', 'health', 'point_of_interest', 'establishment']"
DBVision,55.69679479999999,12.5584055,"['point_of_interest', 'establishment']"
Am Consulting ApS,55.69679479999999,12.5584055,"['finance', 'point_of_interest', 'establishment']"
USG Badmintonklub,55.6984875,12.5612828,"['point_of_interest', 'establishment']"
Akademisk Bokseklub,55.6981742,12.561301,"['health', 'point_of_interest', 'establishment']"
Playground,55.6970707,12.5621695,"['point_of_interest', 'establishment']"
WMS,55.697639,12.563065,"['point_of_interest', 'establishment']"
Nørre Campus (Nørre Allé),55.6970816,12.5616651,"['transit_station', 'point_of_interest', 'establishment']"
Danmarks Unge Katoliker,55.7081354,12.567023,"['point_of_interest', 'establishment']"
Adept Communication,55.70751269999999,12.5654019,"['point_of_interest', 'establishment']"
Andelsboligforeningen Sct. Kjeldsgade,55.7075616,12.5679011,"['point_of_interest', 'establishment']"
Seaton.dk,55.7073836,12.5659454,"['point_of_interest', 'establishment']"
Orthos v/Ole Rebner,55.7073836,12.5659454,"['point_of_interest', 'establishment']"
D.H.Service v/Detlef Hartung,55.70704079999999,12.5651087,"['point_of_interest', 'establishment']"
Heidi Schønberg,55.70723289999999,12.5656116,"['point_of_interest', 'establishment']"
Karina Lange Udviklingscoach,55.7077378,12.5657402,"['point_of_interest', 'establishment']"
Kesch Design v/Kasper Schwartz,55.70800200000001,12.565601,"['point_of_interest', 'establishment']"
Parkkvarterets Boligforening,55.70704079999999,12.5651087,"['local_government_office', 'point_of_interest', 'establishment']"
AT7 Design,55.708378,12.567945,"['point_of_interest', 'establishment']"
Sankt Augustins Kirke,55.70741890000001,12.5670068,"['church', 'place_of_worship', 'point_of_interest', 'establishment']"
Karin Falck's Køkken & Catering,55.7072913,12.5664562,"['food', 'point_of_interest', 'establishment']"
Lars Hoffmann Games,55.707562,12.567901,"['health', 'point_of_interest', 'establishment']"
Danske Modister og Hattemagere,55.7070802,12.5649599,"['point_of_interest', 'establishment']"
Benjamin Sanitet & Entrepriser ApS,55.70820399999999,12.5680251,"['point_of_interest', 'establishment']"
Sidse Wernberg,55.708156,12.568466,"['point_of_interest', 'establishment']"
Römer Design,55.70689729999999,12.5644577,"['point_of_interest', 'establishment']"
Abakion A/S,55.70705299999999,12.563413,"['point_of_interest', 'establishment']"
Det Danske Hildegard Ensemble,55.70850489999999,12.5655789,"['point_of_interest', 'establishment']"
Minor Change Group,55.7072631,12.5634536,"['point_of_interest', 'establishment']"
Lægerne Swane Lund&Billekop I/S,55.708392,12.569143,"['point_of_interest', 'establishment']"
Adept Consultants,55.70839909999999,12.5648357,"['point_of_interest', 'establishment']"
BystedFFW,55.7072631,12.5634536,"['point_of_interest', 'establishment']"
Københavns Skipperforening,55.7088252,12.5658181,"['point_of_interest', 'establishment']"
Kao Denmark A/S,55.7069813,12.5634671,"['point_of_interest', 'clothing_store', 'store', 'establishment']"
Peak Consulting Group,55.7070567,12.5632787,"['point_of_interest', 'establishment']"
EGN Netværk Danmark,55.7067864,12.5635855,"['point_of_interest', 'establishment']"
Skibsfører Frands Villy Theilade O G Hustru Lilly Kirstine Født Olse Ns Almen Nyttige Legat For Vær,55.7089063,12.5660558,"['point_of_interest', 'establishment']"
Kan Rep Låse,55.7083385,12.5699623,"['locksmith', 'point_of_interest', 'establishment']"
H. Læssøe Barfoed og Hustrus Legat,55.7089063,12.5660558,"['point_of_interest', 'establishment']"
Understøttelseskassen,55.7089063,12.5660558,"['point_of_interest', 'establishment']"
Dalux ApS,55.7071024,12.563334,"['point_of_interest', 'establishment']"
PizziE,55.7081674,12.563769,"['general_contractor', 'point_of_interest', 'establishment']"
Bennung ApS,55.708167,12.569933,"['point_of_interest', 'establishment']"
Handelsstandens Boldklub,55.7059449,12.5638314,"['point_of_interest', 'establishment']"
Job Vision København,55.7072632,12.5634537,"['point_of_interest', 'establishment']"
Ku - Science - Nbi,55.7072631,12.5634536,"['point_of_interest', 'establishment']"
Kemp & Lauritzen A/S,55.7072631,12.5634536,"['electrician', 'point_of_interest', 'establishment']"
CleverCode Aps,55.7072631,12.5634536,"['point_of_interest', 'establishment']"
Devoteam A/S,55.7072631,12.5634536,"['point_of_interest', 'establishment']"
Gavdi Group,55.7072631,12.5634536,"['point_of_interest', 'establishment']"
My4,55.7072631,12.5634536,"['point_of_interest', 'establishment']"
Villingshøj & Messerschmidt,55.7086704,12.569332,"['general_contractor', 'point_of_interest', 'establishment']"
VIK Rengøring,55.70881,12.569768,"['point_of_interest', 'establishment']"
Exima Aps,55.7088245,12.5688453,"['point_of_interest', 'establishment']"
Sita Workbridge A/S,55.7072548,12.5633544,"['point_of_interest', 'establishment']"
Fælledklubhuset,55.70594500000001,12.563831,"['point_of_interest', 'establishment']"
Østerbro Idræts-Forening,55.7059449,12.5638314,"['point_of_interest', 'establishment']"
FFW Copenhagen,55.7070352,12.5632897,"['point_of_interest', 'establishment']"
ADNUVO°,55.70688899999999,12.5632743,"['point_of_interest', 'establishment']"
No5 Frisør v/Paula Hofmman,55.7083962,12.5700018,"['beauty_salon', 'hair_care', 'point_of_interest', 'establishment']"
webCRM A/S,55.7071704,12.5631571,"['point_of_interest', 'establishment']"
Inovator,55.70919259999999,12.5664241,"['point_of_interest', 'establishment']"
Hotdoc,55.7085666,12.5642582,"['point_of_interest', 'establishment']"
Medu Liberia,55.709205,12.5663959,"['point_of_interest', 'establishment']"
"Atelier Tina Hee, artist",55.70865599999999,12.5698019,"['art_gallery', 'point_of_interest', 'establishment']"
Ymor,55.7072014,12.5630306,"['point_of_interest', 'establishment']"
Vintage 199,55.70805559999999,12.5708333,"['point_of_interest', 'clothing_store', 'store', 'establishment']"
Carin Faaborg,55.707698,12.570909,"['point_of_interest', 'establishment']"
Simon Fensholm Illustration,55.70865599999999,12.5698019,"['point_of_interest', 'establishment']"
Anne Lorenzen Kunst & Kursus,55.70865599999999,12.5698019,"['point_of_interest', 'establishment']"
Krejl & Coffee,55.70808400000001,12.5709527,"['cafe', 'food', 'point_of_interest', 'establishment']"
Farveladeland.DK v/Steen Berg Hansen,55.70881,12.569768,"['point_of_interest', 'establishment']"
ArtRoom8,55.708707,12.570221,"['point_of_interest', 'establishment']"
Laila Hansen Interieur,55.70782389999999,12.5716263,"['general_contractor', 'point_of_interest', 'establishment']"
Wood Entreprise,55.708189,12.57132,"['point_of_interest', 'establishment']"
The city's Carpet and Flooring,55.70896399999999,12.569735,"['home_goods_store', 'general_contractor', 'point_of_interest', 'store', 'establishment']"
Deas A/S,55.70773,12.5717075,"['point_of_interest', 'establishment']"
Nauticeasy,55.70886099999999,12.570187,"['point_of_interest', 'establishment']"
Iron Inc.,55.7090932,12.5694386,"['point_of_interest', 'establishment']"
Notem Studio,55.70685599999999,12.5720552,"['point_of_interest', 'establishment']"
Sig Logik Aps,55.70847670000001,12.5711899,"['bus_station', 'transit_station', 'point_of_interest', 'establishment']"
Hox,55.7082154,12.5714571,"['hair_care', 'point_of_interest', 'establishment']"
Andreas Larsen,55.708979,12.57015,"['point_of_interest', 'establishment']"
Dansk Annoncørforening,55.709406,12.566892,"['point_of_interest', 'establishment']"
Søren Nørbo Trio,55.706968,12.572514,"['point_of_interest', 'establishment']"
BM Arkitekter ApS,55.706968,12.572514,"['point_of_interest', 'establishment']"
Vestergaard Productions,55.7094818,12.5690835,"['point_of_interest', 'establishment']"
Ruby,55.67674940000001,12.5766523,"['bar', 'point_of_interest', 'establishment']"
165,55.67746589999999,12.5815042,"['point_of_interest', 'establishment']"
A/B Samosvej 28,55.6786489,12.5810032,"['point_of_interest', 'establishment']"
111,55.67664919999999,12.5764862,"['point_of_interest', 'establishment']"
Thorvaldsens Museum,55.67674719999999,12.5783916,"['tourist_attraction', 'museum', 'point_of_interest', 'establishment']"
Illums Bolighus,55.6788744,12.5786292,"['store', 'point_of_interest', 'establishment']"
Marv & Ben,55.6773069,12.577004,"['restaurant', 'food', 'point_of_interest', 'establishment']"
La Fontaine,55.6773962,12.5761354,"['night_club', 'bar', 'point_of_interest', 'establishment']"
Levi's® Amagertorv,55.678662,12.5786831,"['clothing_store', 'point_of_interest', 'store', 'establishment']"
Gucci,55.67944519999999,12.5813093,"['jewelry_store', 'point_of_interest', 'clothing_store', 'store', 'establishment']"
Zirup,55.677903,12.57721,"['restaurant', 'food', 'point_of_interest', 'establishment']"
Live in historic centre,55.6779552,12.582382,"['lodging', 'point_of_interest', 'establishment']"
Royal Copenhagen Flagship Store,55.67895799999999,12.57905,"['home_goods_store', 'point_of_interest', 'store', 'establishment']"
BOSS Shop,55.6794028,12.5805661,"['clothing_store', 'shoe_store', 'point_of_interest', 'store', 'establishment']"
The Dubliner,55.6786816,12.5789267,"['bar', 'restaurant', 'food', 'point_of_interest', 'establishment']"
Café Norden,55.67891119999999,12.5799328,"['cafe', 'food', 'point_of_interest', 'establishment']"
K-Bar,55.67791839999999,12.5807255,"['bar', 'point_of_interest', 'establishment']"
Ved Stranden 10,55.6773037,12.5816045,"['bar', 'liquor_store', 'food', 'point_of_interest', 'store', 'establishment']"
Stork Fountain,55.67883560000001,12.579573,"['tourist_attraction', 'park', 'point_of_interest', 'establishment']"
L'etoile ApS,55.67924799999999,12.579246,"['point_of_interest', 'establishment']"
Stromma Canal Tours Copenhagen,55.6779744,12.5803712,"['travel_agency', 'point_of_interest', 'establishment']"
Utroskab,55.6788161,12.5778511,"['point_of_interest', 'establishment']"
"Nikolaj, Copenhagen Contemporary Art Center",55.678644,12.5815874,"['tourist_attraction', 'museum', 'point_of_interest', 'establishment']"
Tight,55.6781218,12.576387,"['bar', 'restaurant', 'food', 'point_of_interest', 'establishment']"
Urban Outfitters,55.6795269,12.5815699,"['clothing_store', 'home_goods_store', 'point_of_interest', 'store', 'establishment']"
Georg Jensen,55.6789753,12.5793286,"['jewelry_store', 'point_of_interest', 'store', 'establishment']"
Toga Vinstue,55.678769,12.580237,"['bar', 'point_of_interest', 'establishment']"
Cafe Europa,55.67866909999999,12.5793745,"['cafe', 'food', 'point_of_interest', 'establishment']"
Krogs Fiskerestaurant,55.67775719999999,12.5784942,"['restaurant', 'food', 'point_of_interest', 'establishment']"
Lån & Spar | Højbro Plads,55.678486,12.5802798,"['bank', 'finance', 'point_of_interest', 'establishment']"
Restaurant Maven,55.6784917,12.5816056,"['restaurant', 'bar', 'food', 'point_of_interest', 'establishment']"
Foot Locker,55.67864609999999,12.5784163,"['shoe_store', 'point_of_interest', 'clothing_store', 'store', 'establishment']"
Disney Store,55.6789077,12.5788581,"['point_of_interest', 'store', 'establishment']"
Church of Holmen,55.6766342,12.5836016,"['church', 'tourist_attraction', 'place_of_worship', 'point_of_interest', 'establishment']"
Stender Strøget,55.67915439999999,12.5809949,"['hair_care', 'point_of_interest', 'establishment']"
Mannequin Shop,55.6782214,12.576583,"['clothing_store', 'point_of_interest', 'store', 'establishment']"
Mads Nørgaard,55.6786773,12.5780985,"['point_of_interest', 'clothing_store', 'store', 'establishment']"
L'esprit Du Vin,55.6772388,12.5767568,"['liquor_store', 'food', 'point_of_interest', 'store', 'establishment']"
Gynækolog Pilsgaard Kirsten,55.6781349,12.5764325,"['doctor', 'health', 'point_of_interest', 'establishment']"
Le Klint,55.6788328,12.5805919,"['home_goods_store', 'point_of_interest', 'store', 'establishment']"
Max Mara Copenhagen,55.678935,12.5788284,"['point_of_interest', 'clothing_store', 'store', 'establishment']"
Visual Maps,55.6778161,12.5773478,"['point_of_interest', 'establishment']"
Heartbreak Model Management,55.6779691,12.5806994,"['point_of_interest', 'establishment']"
Søren Aabye Kierkegaard by Louis Hasselriis,55.67451209999999,12.5810003,"['point_of_interest', 'establishment']"
Sand Copenhagen,55.67948879999999,12.5817343,"['clothing_store', 'point_of_interest', 'store', 'establishment']"
Napcentre Europe ApS,55.6792562,12.5793439,"['point_of_interest', 'establishment']"
Nordisk Ministerråds Sekretariat / Nordic Council of Ministers,55.6777798,12.581036,"['point_of_interest', 'establishment']"
Winsløw Advokatfirma,55.6778701,12.5788837,"['lawyer', 'point_of_interest', 'establishment']"
Kulturfonden Danmark-Grønland,55.67627199999999,12.5789259,"['point_of_interest', 'establishment']"
Nord Gruppen ApS,55.6777171,12.5782449,"['point_of_interest', 'establishment']"
Ditte Fischer Copenhagen,55.67828919999999,12.5783784,"['jewelry_store', 'point_of_interest', 'store', 'establishment']"
Sadelmager-& Tapetsererlauget i København,55.6779825,12.581234,"['point_of_interest', 'establishment']"
Rud Pedersen A / S,55.6775506,12.5811643,"['point_of_interest', 'establishment']"
Foreningen For Ansvarlig Presse,55.6776187,12.5778058,"['point_of_interest', 'establishment']"
Thane Sara,55.67798029999999,12.5820282,"['hair_care', 'point_of_interest', 'establishment']"
Venstres Folketingsgruppe,55.6762316,12.5805143,"['point_of_interest', 'establishment']"
Nordjyske Medier A/S,55.6759365,12.5790851,"['point_of_interest', 'establishment']"
Maze & Partners Denmark A / S,55.6785369,12.5782221,"['point_of_interest', 'establishment']"
RizRaz,55.677055,12.575207,"['restaurant', 'food', 'point_of_interest', 'store', 'establishment']"
"Klostergården, Copenhagen",55.67857600000001,12.575143,"['place_of_worship', 'point_of_interest', 'establishment']"
Restaurant & Frokostrestaurant København K - Cafe Sorgenfri,55.6777267,12.5747322,"['cafe', 'restaurant', 'food', 'point_of_interest', 'establishment']"
Gorm's in Magstræde,55.67630280000001,12.575125,"['meal_takeaway', 'restaurant', 'food', 'point_of_interest', 'establishment']"
Church of the Holy Spirit,55.67899399999999,12.57677,"['tourist_attraction', 'church', 'place_of_worship', 'point_of_interest', 'establishment']"
Københavner Cafeen,55.67811630000001,12.5750512,"['restaurant', 'food', 'point_of_interest', 'establishment']"
Restaurant Kronborg,55.6776472,12.5745583,"['restaurant', 'food', 'point_of_interest', 'establishment']"
Katz,55.67596709999999,12.5751598,"['restaurant', 'cafe', 'bar', 'food', 'point_of_interest', 'establishment']"
Wolford Scandinavia,55.678521,12.576729,"['point_of_interest', 'clothing_store', 'store', 'establishment']"
Zefside,55.6758919,12.5750072,"['night_club', 'point_of_interest', 'establishment']"
Maylands Blomster,55.6769883,12.5763207,"['florist', 'point_of_interest', 'store', 'establishment']"
Bærbart,55.6761157,12.575712,"['jewelry_store', 'point_of_interest', 'store', 'establishment']"
Avenue Hotel Copenhagen,55.6847856,12.5526303,"['lodging', 'bar', 'restaurant', 'food', 'point_of_interest', 'establishment']"
Sleep in Heaven,55.6868312,12.5506561,"['lodging', 'point_of_interest', 'establishment']"
Prinsesse Thyras Børnehus,55.6874562,12.5475947,"['school', 'point_of_interest', 'establishment']"
Scarpetta,55.6854234,12.55239,"['restaurant', 'food', 'point_of_interest', 'establishment']"
Allan Shapiro Psykolog,55.6841436,12.548463,"['health', 'point_of_interest', 'establishment']"
Nyu Sakura,55.684176,12.551469,"['restaurant', 'food', 'point_of_interest', 'establishment']"
Hi-Fi Klubben Copenhagen,55.68525799999999,12.551585,"['electronics_store', 'point_of_interest', 'store', 'establishment']"
Argentinsk tango i København hos M2tango Studio,55.6863694,12.5511228,"['school', 'point_of_interest', 'establishment']"
Quriosa,55.6867484,12.54873,"['home_goods_store', 'point_of_interest', 'store', 'establishment']"
Røntgen - Ultralyd Klinikken,55.68436430000001,12.5517044,"['health', 'point_of_interest', 'establishment']"
VERA skole for kunst & design,55.68689389999999,12.5503283,"['point_of_interest', 'establishment']"
Danske Døves Landsforbund,55.6860176,12.5476757,"['point_of_interest', 'establishment']"
"Askovfonden, Det Gule Hus, Værested",55.6855021,12.5508265,"['health', 'point_of_interest', 'establishment']"
Hårshoppen v/Tina Bruun,55.68405050000001,12.5513874,"['hair_care', 'point_of_interest', 'establishment']"
Akropolis,55.68437050000001,12.5515994,"['restaurant', 'food', 'point_of_interest', 'establishment']"
Lotus Foto,55.6842774,12.5494393,"['point_of_interest', 'establishment']"
Brød Værten,55.6855574,12.5519886,"['bakery', 'food', 'point_of_interest', 'store', 'establishment']"
Mette Lodahl Mikkelsen,55.6839895,12.5500903,"['point_of_interest', 'establishment']"
Frederiksberg,55.677069,12.513321,"['locality', 'political']"
Jeanette Hiiri Keramik,55.6842899,12.548553,"['point_of_interest', 'establishment']"
Mette Lehmann (Anne Mette Lehmann),55.6852262,12.5507107,"['point_of_interest', 'establishment']"
Christianskolen,55.683938,12.54943,"['school', 'point_of_interest', 'establishment']"
Morten Skærved,55.6849694,12.5491427,"['point_of_interest', 'establishment']"
Bitkompot,55.684969,12.549143,"['point_of_interest', 'establishment']"
Maja Haugum,55.6850408,12.5480144,"['point_of_interest', 'establishment']"
Idrætsbørnehuset,55.68472889999999,12.54787,"['school', 'point_of_interest', 'establishment']"
Servicesnedkeren.DK v/Thomas Bredahl Christiansen,55.68565189999999,12.5494019,"['point_of_interest', 'establishment']"
Alliance Køreskole,55.6848717,12.5504561,"['point_of_interest', 'establishment']"
Hotspot Copenhagen,55.6849667,12.5474684,"['spa', 'point_of_interest', 'establishment']"
Skrædderi & Renseri Paris,55.6839727,12.5512815,"['point_of_interest', 'establishment']"
Knappe Maria,55.68438879999999,12.5501411,"['point_of_interest', 'establishment']"
Senatus Consulto I/S,55.6841436,12.548463,"['point_of_interest', 'establishment']"
Crowdmade ApS,55.6849818,12.5473904,"['jewelry_store', 'point_of_interest', 'store', 'establishment']"
Chiakupunktur,55.68475899999999,12.547409,"['health', 'point_of_interest', 'establishment']"
City Cleaners,55.685622,12.547726,"['point_of_interest', 'establishment']"
Vivi Lizzi Helseklinik v/Vivi Lizzi Teller,55.6840193,12.5484203,"['point_of_interest', 'establishment']"
Apt 12.02.2014 ApS,55.685376,12.5507044,"['point_of_interest', 'establishment']"
Music Key,55.68533369999999,12.550733,"['electronics_store', 'home_goods_store', 'point_of_interest', 'store', 'establishment']"
Mediamanager - IT support for mindre og mellemstore virksomheder,55.6839795,12.5498994,"['point_of_interest', 'establishment']"
The Image Faculty,55.68418320000001,12.5504537,"['point_of_interest', 'establishment']"
Repeat - Åboulevard,55.6852147,12.551031,"['gym', 'health', 'point_of_interest', 'establishment']"
e.cigcenter,55.68554609999999,12.5469934,"['point_of_interest', 'store', 'establishment']"
Københavns Døves Idrætsforening Døvania,55.6860176,12.5476757,"['point_of_interest', 'establishment']"
TETO.nu,55.6860137,12.5475746,"['point_of_interest', 'establishment']"
Balkangruppen,55.6859709,12.550501,"['point_of_interest', 'establishment']"
Cps/Cultural Projects Service,55.6858012,12.5470832,"['point_of_interest', 'establishment']"
Erling Larsen,55.6858012,12.5470832,"['point_of_interest', 'establishment']"
Avh Productions v/ Annette V. Hansen,55.68629369999999,12.5495831,"['point_of_interest', 'establishment']"
Kööpenhaminan Suomalainen Seura / Københavns Finske Forening,55.6842091,12.5509976,"['point_of_interest', 'establishment']"
Malerfirmaet Lihn ApS,55.6856443,12.546799,"['point_of_interest', 'establishment']"
Foreningen Fast Video,55.6839737,12.5512775,"['point_of_interest', 'establishment']"
Netto,55.6860901,12.5505774,"['supermarket', 'grocery_or_supermarket', 'food', 'point_of_interest', 'store', 'establishment']"
Olivia CPH,55.683859,12.550757,"['clothing_store', 'point_of_interest', 'store', 'establishment']"
Studio Grøn Arkitekter Aktiebolag,55.6862705,12.547564,"['point_of_interest', 'establishment']"
Henrik Haugbølle,55.68631409999999,12.5502832,"['point_of_interest', 'establishment']"
entrée,55.68347410000001,12.5495519,"['cafe', 'food', 'point_of_interest', 'establishment']"
Dansk Center vedr. Alle Afhængigheder NGO,55.6858305,12.5466939,"['point_of_interest', 'establishment']"
Dansk Tatovør Laug,55.6849426,12.5517556,"['point_of_interest', 'establishment']"
Kromtex ApS,55.6844408,12.551707,"['point_of_interest', 'establishment']"
ALICE cph,55.69150200000001,12.5605882,"['point_of_interest', 'establishment']"
Nørrebro Bryghus,55.6901314,12.5637764,"['bar', 'restaurant', 'food', 'point_of_interest', 'establishment']"
The Mad Hatter Bubble Tea Emporium,55.690507,12.560387,"['cafe', 'food', 'point_of_interest', 'establishment']"
Sebastopol,55.69082179999999,12.5601599,"['restaurant', 'cafe', 'food', 'point_of_interest', 'establishment']"
Kunstforeningen Airplay,55.68937469999999,12.5631835,"['point_of_interest', 'establishment']"
Politimuseet - Danish Police Museum,55.6901224,12.5608252,"['museum', 'tourist_attraction', 'point_of_interest', 'establishment']"
A/B Den Flyvende Hollænder,55.6904706,12.5603469,"['point_of_interest', 'establishment']"
Quadric,55.6913528,12.5624682,"['point_of_interest', 'establishment']"
SF Ungdom,55.692275,12.564805,"['point_of_interest', 'establishment']"
Bain & Company,55.69021539999999,12.5638166,"['point_of_interest', 'establishment']"
Style Units ApS,55.691704,12.565883,"['point_of_interest', 'establishment']"
Michael Daugaard,55.6916993,12.5658749,"['point_of_interest', 'establishment']"
Design 19E,55.691704,12.565883,"['point_of_interest', 'establishment']"
Læssøegården,55.69146480000001,12.5634612,"['school', 'point_of_interest', 'establishment']"
Carsten Andersen,55.69108929999999,12.564559,"['point_of_interest', 'establishment']"
Sankt Johannes Gården,55.69211949999999,12.5628523,"['point_of_interest', 'establishment']"
RIB,55.6920392,12.5654845,"['point_of_interest', 'establishment']"
Panum's Youth Research Association (PUFF),55.692947,12.5621574,"['point_of_interest', 'establishment']"
Printlab,55.6915815,12.5657,"['point_of_interest', 'establishment']"
Metricsense ApS,55.690862,12.56268,"['point_of_interest', 'establishment']"
Webeater ApS,55.692566,12.564722,"['health', 'point_of_interest', 'establishment']"
Actioneater ApS,55.6925055,12.5646217,"['point_of_interest', 'establishment']"
Plank Design (Mai Plank),55.691704,12.565883,"['point_of_interest', 'establishment']"
Nathan Romero Arkitekter,55.6903341,12.5624598,"['point_of_interest', 'establishment']"
Birke & Kirkeskov I/S,55.6917104,12.5631543,"['point_of_interest', 'establishment']"
Communication Holm A / S,55.69025899999999,12.563922,"['point_of_interest', 'establishment']"
Hestehave Fotografi (Kimmie Amanda Hestehave),55.69025879999999,12.5639214,"['point_of_interest', 'establishment']"
In Situ Aps,55.6911602,12.5621455,"['point_of_interest', 'establishment']"
Bettina Bakdal v/Bettina Milling Bakdal,55.691704,12.565883,"['point_of_interest', 'establishment']"
Victor Lieberath Studio,55.6908624,12.5626798,"['point_of_interest', 'establishment']"
Kalabalik ApS,55.69113969999999,12.5639671,"['point_of_interest', 'establishment']"
Mlrp Architecture Research & Development v/Robert Warren Paulsen,55.691704,12.565883,"['point_of_interest', 'establishment']"
Kåre Bluitgen,55.69056329999999,12.5645576,"['point_of_interest', 'establishment']"
Kræmmerhuset v/Peter Bjørn Frederiksen,55.6909494,12.5617045,"['point_of_interest', 'establishment']"
DANSEatelier,55.69221369999999,12.5640535,"['point_of_interest', 'establishment']"
Stummann & Haraldsens Pianomagasin v/Martin Stummann,55.69233690000001,12.5644048,"['electronics_store', 'home_goods_store', 'point_of_interest', 'store', 'establishment']"
Mai Brøndsted,55.691851,12.56483,"['gym', 'health', 'point_of_interest', 'establishment']"
Hesselholdt Film v/Benjamin Hesselholdt,55.6917104,12.5631543,"['point_of_interest', 'establishment']"
Afsæt v/Katrine Høyberg,55.692451,12.564469,"['point_of_interest', 'establishment']"
Netværket af Ungdomsråd - NAU,55.692275,12.564805,"['point_of_interest', 'establishment']"
Force4 Architects,55.691704,12.565883,"['point_of_interest', 'establishment']"
Teaterkorpset,55.6913498,12.5635355,"['point_of_interest', 'establishment']"
Giraff Graff,55.6913498,12.5635355,"['point_of_interest', 'establishment']"
Atoriet,55.6913498,12.5635355,"['point_of_interest', 'establishment']"
FADLs Vagtbureau,55.69258319999999,12.5647599,"['point_of_interest', 'establishment']"
Rasmus Hytting,55.6912067,12.5641324,"['point_of_interest', 'establishment']"
Det Lægevidenskabelige Fakultets F Ond For Videnskabeligt Ansatte Kan Didater og Studerend,55.69281399999999,12.564202,"['point_of_interest', 'establishment']"
Blf Fængsel,55.69113969999999,12.5639671,"['point_of_interest', 'establishment']"
Kantinen,55.6927433,12.5631968,"['restaurant', 'food', 'point_of_interest', 'establishment']"
Mette Stokholm,55.6919013,12.5686019,"['doctor', 'health', 'point_of_interest', 'establishment']"
Sølund Integreret Institution,55.69180799999999,12.5671537,"['point_of_interest', 'establishment']"
A/B Øster Farimagsgade 18 - 18a,55.69166670000001,12.5682731,"['point_of_interest', 'establishment']"
The green scouts in Nørrebro - Borg Group,55.6921587,12.5685492,"['point_of_interest', 'establishment']"
Copland ApS v/ Ole Møller,55.6921708,12.5664295,"['point_of_interest', 'establishment']"
PACT,55.6921733,12.5668356,"['point_of_interest', 'establishment']"
Susan Lunddahl,55.6921733,12.5668356,"['health', 'point_of_interest', 'establishment']"
E/F Nyhavn 12,55.69166670000001,12.5682731,"['point_of_interest', 'establishment']"
Sofie Højgaard Thybo Illustration,55.6920764,12.5665511,"['point_of_interest', 'establishment']"
Islamisk-Kristent Studiecenter,55.692149,12.5668841,"['mosque', 'place_of_worship', 'point_of_interest', 'establishment']"
Envii Headquarters,55.6919162,12.5660174,"['point_of_interest', 'establishment']"
Victor Haderup Auditorium,55.6928142,12.5633237,"['university', 'point_of_interest', 'establishment']"
Hofor,55.63986300000001,12.584187,"['point_of_interest', 'establishment']"
Tjørneby Wind Park ApS,55.63986300000001,12.584187,"['point_of_interest', 'establishment']"
Vores Vand Holding A/S,55.63986300000001,12.584187,"['point_of_interest', 'establishment']"
1340/Fazer Food Services A/S,55.63986300000001,12.584187,"['point_of_interest', 'establishment']"
Dansk Intergraph Brugerforening,55.63986300000001,12.584187,"['point_of_interest', 'establishment']"
Ravlundvej Wind Park,55.63986300000001,12.584187,"['point_of_interest', 'establishment']"
Norrbohm ApS,55.6383497,12.5842478,"['point_of_interest', 'establishment']"
Nano Capital ApS,55.6383497,12.5842478,"['point_of_interest', 'establishment']"
Virtual Nordic,55.6383819,12.584021,"['point_of_interest', 'establishment']"
Oak & Aven,55.6383819,12.584021,"['point_of_interest', 'establishment']"
Ideact Aps,55.6383819,12.584021,"['point_of_interest', 'establishment']"
Fjárhúsid Garnverzlun,55.6384047,12.5838231,"['point_of_interest', 'establishment']"
Abrahamsen Ronnie,55.6384047,12.5838231,"['point_of_interest', 'establishment']"
Sanitized,55.6384273,12.5836269,"['point_of_interest', 'establishment']"
Arthole,55.6384273,12.5836269,"['point_of_interest', 'establishment']"
Hao Trading,55.6384273,12.5836269,"['point_of_interest', 'establishment']"
Skt Petri,55.6806016,12.5713151,"['lodging', 'bar', 'restaurant', 'food', 'point_of_interest', 'establishment']"
Københavns Universitets Studenterfond,55.681107,12.572844,"['point_of_interest', 'establishment']"
Copenhagen University,55.6802303,12.5724096,"['university', 'point_of_interest', 'establishment']"
Dalle Valle,55.6808,12.5727,"['restaurant', 'cafe', 'food', 'point_of_interest', 'establishment']"
Conditori La Glace,55.6785921,12.5735765,"['bakery', 'cafe', 'food', 'point_of_interest', 'store', 'establishment']"
The Round Tower,55.681347,12.57573,"['tourist_attraction', 'premise', 'point_of_interest', 'establishment']"
Det Lille Apotek,55.6803476,12.5746456,"['restaurant', 'food', 'point_of_interest', 'establishment']"
Ristorante Italiano,55.67929599999999,12.573889,"['restaurant', 'food', 'point_of_interest', 'establishment']"
Amalfi Restaurant,55.67947669999999,12.5753681,"['restaurant', 'meal_takeaway', 'bar', 'food', 'point_of_interest', 'establishment']"
El Meson,55.6824205,12.5756843,"['bar', 'restaurant', 'food', 'point_of_interest', 'establishment']"
Studenterhuset,55.6811862,12.576256,"['cafe', 'food', 'point_of_interest', 'establishment']"
Parafilm A/S,55.68181179999999,12.5750321,"['point_of_interest', 'establishment']"
Peder Oxe,55.6797001,12.5760476,"['restaurant', 'food', 'point_of_interest', 'establishment']"
Cafe G,55.68016530000001,12.5754734,"['cafe', 'food', 'point_of_interest', 'establishment']"
153,55.68265700000001,12.577648,"['point_of_interest', 'establishment']"
Peder Oxes Basement,55.67968399999999,12.576008,"['night_club', 'bar', 'point_of_interest', 'establishment']"
Schønnemann,55.6827778,12.5761111,"['restaurant', 'food', 'point_of_interest', 'establishment']"
Arnold Busck,55.6811149,12.5759713,"['book_store', 'point_of_interest', 'store', 'establishment']"
198 F,55.6804563,12.5710001,"['point_of_interest', 'establishment']"
Gosuman ApS,55.6812108,12.5788835,"['point_of_interest', 'establishment']"
Paludan Bog & Café,55.6803918,12.573249,"['cafe', 'book_store', 'restaurant', 'food', 'point_of_interest', 'store', 'establishment']"
København Vaisenhus Apotek,55.6816414,12.575587,"['pharmacy', 'health', 'point_of_interest', 'store', 'establishment']"
Eye Health Center Ltd.,55.6802671,12.5740641,"['health', 'point_of_interest', 'establishment']"
Dansk Vandrelaug,55.68213650000001,12.5737926,"['point_of_interest', 'establishment']"
The Happy Pig,55.6801316,12.5745396,"['bar', 'point_of_interest', 'establishment']"
Le Pavè,55.6797742,12.5754294,"['restaurant', 'food', 'point_of_interest', 'establishment']"
Skindhuset,55.6808452,12.5760175,"['point_of_interest', 'store', 'establishment']"
Jonna Vigh - Akupunktur & Zoneterapi,55.6816332,12.5709613,"['health', 'point_of_interest', 'establishment']"
E/F Hauser Plads 12,55.6822905,12.5755853,"['point_of_interest', 'establishment']"
The Globe Irish Pub,55.6818111,12.5709567,"['cafe', 'bar', 'restaurant', 'food', 'point_of_interest', 'establishment']"
Ejerforeningen Irlandsvej 5 A & 5 B,55.679733,12.577397,"['point_of_interest', 'establishment']"
Faraos Cigarer Games,55.6794679,12.5745476,"['point_of_interest', 'store', 'establishment']"
Cph Catering v/Claus Schulze,55.68201499999999,12.573786,"['point_of_interest', 'establishment']"
Ankara,55.681152,12.574089,"['restaurant', 'food', 'point_of_interest', 'establishment']"
Francis Pony,55.67936,12.5749184,"['bar', 'point_of_interest', 'establishment']"
The Old Barber Shop,55.6788484,12.5732315,"['point_of_interest', 'store', 'establishment']"
Anemone Teatret,55.682556,12.576206,"['point_of_interest', 'establishment']"
Trinitatis Church,55.6815933,12.5761475,"['tourist_attraction', 'church', 'place_of_worship', 'point_of_interest', 'establishment']"
Carhartt WIP Store Copenhagen City,55.6810038,12.5741997,"['clothing_store', 'point_of_interest', 'store', 'establishment']"
Bøf & Ost,55.6796027,12.5759168,"['restaurant', 'food', 'point_of_interest', 'establishment']"
Huks Fluks,55.6800378,12.5758568,"['restaurant', 'cafe', 'bar', 'food', 'point_of_interest', 'establishment']"
Fiol Blomster,55.680702,12.5730598,"['florist', 'point_of_interest', 'store', 'establishment']"
A.C. Perchs Thehandel,55.680676,12.578936,"['cafe', 'food', 'point_of_interest', 'store', 'establishment']"
Fitness World,55.6810336,12.5767615,"['point_of_interest', 'establishment']"
Frederiksborggade Øjenklinik v / Hanne Göte,55.6828297,12.5732853,"['doctor', 'health', 'point_of_interest', 'establishment']"
Milano Skrædderi Renseri Hælebar Nøglebar,55.68133599999999,12.571317,"['locksmith', 'laundry', 'point_of_interest', 'store', 'establishment']"
E/F Rosenborggade 10,55.68206,12.574379,"['point_of_interest', 'establishment']"
Slagteren ved Kultorvet,55.6828461,12.5737808,"['food', 'point_of_interest', 'store', 'establishment']"
Folketeatret,55.681442,12.571009,"['point_of_interest', 'establishment']"
Ejendommen Skindergade 32 ApS,55.6793388,12.5740133,"['point_of_interest', 'establishment']"
Bibis Diner 2011 ApS,55.682396,12.572436,"['restaurant', 'food', 'point_of_interest', 'establishment']"
Sankt Petri Church,55.6798565,12.5708733,"['church', 'tourist_attraction', 'place_of_worship', 'point_of_interest', 'establishment']"
Scandinavian Teambuilding - Main Office,55.682227,12.574839,"['point_of_interest', 'establishment']"
The Booktrader,55.6797833,12.574813,"['book_store', 'point_of_interest', 'store', 'establishment']"
Charlie Scotts Bar.,55.6787683,12.573337,"['bar', 'point_of_interest', 'establishment']"
Message,55.6810007,12.5769943,"['point_of_interest', 'clothing_store', 'store', 'establishment']"
Google Copenhagen,55.6805087,12.5701479,"['point_of_interest', 'establishment']"
Exuviance Wellness,55.6813606,12.5695214,"['beauty_salon', 'health', 'point_of_interest', 'establishment']"
Irma,55.6830031,12.5719583,"['supermarket', 'grocery_or_supermarket', 'food', 'point_of_interest', 'store', 'establishment']"
Danske Bank,55.6823756,12.5712053,"['bank', 'finance', 'point_of_interest', 'establishment']"
Shahi indian restaurant,55.67863819999999,12.572643,"['meal_takeaway', 'restaurant', 'food', 'point_of_interest', 'establishment']"
E/F Skindergade,55.6788109,12.5718244,"['point_of_interest', 'establishment']"
McDonald's,55.683063,12.5721936,"['meal_takeaway', 'restaurant', 'food', 'point_of_interest', 'establishment']"
Annettes Pølsevogn v/Annette Nørretranders,55.682446,12.571342,"['point_of_interest', 'establishment']"
Danske Universiteter,55.682612,12.5718029,"['university', 'point_of_interest', 'establishment']"
Vester Kopi - Nørregade Trykkeri og Digital Print,55.6788809,12.5718902,"['point_of_interest', 'store', 'establishment']"
"EUD, Niels Brock",55.68077210000001,12.5687995,"['secondary_school', 'school', 'point_of_interest', 'establishment']"
Michelle Arrouas,55.679198,12.5694135,"['point_of_interest', 'establishment']"
Valkendorfs Kollegium,55.679539,12.568945,"['university', 'point_of_interest', 'establishment']"
Q-Park Nørreport,55.68244329999999,12.5683865,"['parking', 'storage', 'point_of_interest', 'establishment']"
Jailhouse CPH,55.67888599999999,12.5700659,"['night_club', 'bar', 'point_of_interest', 'establishment']"
Notre Dame,55.6787606,12.5720314,"['home_goods_store', 'point_of_interest', 'store', 'establishment']"
The Living Room,55.6785562,12.5691704,"['cafe', 'bar', 'food', 'point_of_interest', 'establishment']"
Soundvenue,55.6786364,12.5698528,"['electronics_store', 'home_goods_store', 'point_of_interest', 'store', 'establishment']"
Fantask,55.679113,12.568559,"['book_store', 'point_of_interest', 'store', 'establishment']"
Greasy Spoon,55.67883440000001,12.5698437,"['restaurant', 'food', 'point_of_interest', 'establishment']"
Ezanza Massage & Wellness,55.68125299999999,12.571474,"['health', 'point_of_interest', 'store', 'establishment']"
Natural Poteket City,55.6795044,12.5685693,"['food', 'health', 'point_of_interest', 'store', 'establishment']"
Psychologist Camilla Böcher,55.68165539999999,12.5710184,"['health', 'point_of_interest', 'establishment']"
Atlas Bar,55.6786065,12.5693001,"['restaurant', 'bar', 'food', 'point_of_interest', 'establishment']"
Optiker Synoptik Nørre Voldgade,55.68335709999999,12.5710374,"['health', 'point_of_interest', 'store', 'establishment']"
Bar7,55.6789895,12.5707064,"['bar', 'point_of_interest', 'establishment']"
Rosengårdens Revision,55.68261099999999,12.572456,"['accounting', 'finance', 'point_of_interest', 'establishment']"
Børsen,55.67550130000001,12.5840127,"['tourist_attraction', 'point_of_interest', 'establishment']"
Danish Jewish Museum,55.67427199999999,12.582269,"['museum', 'tourist_attraction', 'point_of_interest', 'establishment']"
The Royal Library,55.6733994,12.5826588,"['library', 'tourist_attraction', 'point_of_interest', 'establishment']"
Danish War Museum,55.67415099999999,12.5803648,"['tourist_attraction', 'museum', 'point_of_interest', 'establishment']"
Ministry of Environment and Food of Denmark,55.6748403,12.5847564,"['local_government_office', 'point_of_interest', 'establishment']"
IT -Branchen,55.6756766,12.5832685,"['point_of_interest', 'establishment']"
"Klima-, Energi- og Forsyningsministeriet",55.67731500000001,12.5839135,"['point_of_interest', 'establishment']"
Cpr-Administrationen,55.6769662,12.5833133,"['local_government_office', 'point_of_interest', 'establishment']"
Det Radikale Venstres Kontor,55.6757782,12.5820646,"['point_of_interest', 'establishment']"
Dakofo,55.6755904,12.5834817,"['point_of_interest', 'establishment']"
Foreningen af Folketingets Betjente,55.6765507,12.5803484,"['point_of_interest', 'establishment']"
Permanent,55.67769999999999,12.582495,"['point_of_interest', 'establishment']"
Kronometertrappen,55.6766465,12.5829519,"['travel_agency', 'point_of_interest', 'establishment']"
Viften - Ansatte I Folketinget Under Co10,55.6762316,12.5805143,"['point_of_interest', 'establishment']"
Arbejdernetværket,55.6762316,12.5805143,"['point_of_interest', 'establishment']"
Folketingimi Inuit Ataqatigiit,55.67639899999999,12.580435,"['point_of_interest', 'establishment']"
Folketinget,55.67567349999999,12.5803682,"['local_government_office', 'point_of_interest', 'establishment']"
The Christiansborg's Tower,55.67675669999999,12.5833968,"['point_of_interest', 'establishment']"
Netdoktor Media A/S,55.6775674,12.582419,"['point_of_interest', 'establishment']"
Bycyklen Docking Station - Folketinget/Slotholmen,55.6752863,12.5836211,"['point_of_interest', 'establishment']"
Dansk Erhverv - The Danish Chamber of Commerce,55.67544609999999,12.5839486,"['point_of_interest', 'establishment']"
Sammenslutningen af Danske Sortsejere,55.6755307,12.5840213,"['point_of_interest', 'establishment']"
Psykolognævnet,55.6771073,12.5831922,"['health', 'point_of_interest', 'establishment']"
CUB Coffee Bar Boldhusgade,55.677421,12.581826,"['cafe', 'food', 'point_of_interest', 'store', 'establishment']"
Det kongelige Biblioteks Have,55.67463480000001,12.5812279,"['tourist_attraction', 'park', 'point_of_interest', 'establishment']"
The Conservative Party,55.676457,12.579575,"['point_of_interest', 'establishment']"
Mechlenburg Music ApS,55.6775258,12.5824581,"['point_of_interest', 'establishment']"
Swapamok ApS,55.6775258,12.5824581,"['point_of_interest', 'establishment']"
Copenhagen Local,55.677538,12.582448,"['travel_agency', 'point_of_interest', 'establishment']"
Birgitte Hommelgaard,55.677557,12.582035,"['health', 'point_of_interest', 'establishment']"
KöD,55.6775848,12.5823575,"['restaurant', 'food', 'point_of_interest', 'establishment']"
Nordisk Kulturfond,55.6777798,12.581036,"['point_of_interest', 'establishment']"
Hauschildt Marine,55.6777224,12.5828765,"['point_of_interest', 'establishment']"
Albert Elias Grøndahl,55.6776083,12.5811211,"['art_gallery', 'point_of_interest', 'establishment']"
El Cava,55.6776343,12.5810627,"['bar', 'restaurant', 'food', 'point_of_interest', 'establishment']"
Sixtus Maritime,55.67772890000001,12.5820076,"['point_of_interest', 'establishment']"
Gamers Coin Steffen Kirkegaard,55.67773,12.5827872,"['point_of_interest', 'establishment']"
Ejerforeningen Overgaden Neden Vandet 15 15 A,55.677834,12.582697,"['bus_station', 'transit_station', 'point_of_interest', 'establishment']"
HALDGUTTENBERG Advokatfirma,55.6778012,12.5828253,"['point_of_interest', 'establishment']"
Det Administrative Bibliotek (DAB),55.6733994,12.5826588,"['library', 'point_of_interest', 'establishment']"
Vin og Spiritus Organisationen I Danmark,55.6751344,12.5859149,"['food', 'point_of_interest', 'establishment']"
FDIH - The Association of Danish Internet trading,55.6750889,12.5857353,"['point_of_interest', 'establishment']"
Uddannelses- og Forskningsministeriet,55.67524939999999,12.5854598,"['point_of_interest', 'establishment']"
Public Relation Branchen,55.6751344,12.5859149,"['point_of_interest', 'establishment']"
Danish Design Association,55.6751344,12.5859149,"['point_of_interest', 'establishment']"
"Ministry of Industry, Business and Financial Affairs",55.6748271,12.5848402,"['point_of_interest', 'establishment']"
Forlaget Kragen ApS,55.67386639999999,12.5834476,"['point_of_interest', 'establishment']"
Importørforeningen For Professionel Elektronik,55.6751344,12.5859149,"['point_of_interest', 'establishment']"
MindLab,55.674836,12.584682,"['point_of_interest', 'establishment']"
Foreningen Danmarks Folkeminder,55.67386639999999,12.5834476,"['point_of_interest', 'establishment']"
Universitets-Jubilæets Danske Samfund,55.6739362,12.5839814,"['point_of_interest', 'establishment']"
Icc Danmark International Chamber Of Commerce,55.6750321,12.5854004,"['point_of_interest', 'establishment']"
"BFA Kontor - en del af brancefællesskabet for Handel, Finans og Kontor",55.675225,12.585262,"['health', 'point_of_interest', 'establishment']"
Nordisk Speditør Forbund,55.6752245,12.5852622,"['point_of_interest', 'establishment']"
DiaLab - Dansk Diagnostika- og Laboratorieforening,55.6752245,12.5852622,"['point_of_interest', 'establishment']"
Konpa,55.6752245,12.5852622,"['point_of_interest', 'establishment']"
Wear,55.6752245,12.5852622,"['clothing_store', 'point_of_interest', 'store', 'establishment']"
Selveje Danmark,55.6752245,12.5852622,"['point_of_interest', 'establishment']"
Dansk Oplagskontrol,55.6752245,12.5852622,"['point_of_interest', 'establishment']"
Momentum Advokatfirma,55.6752245,12.5852622,"['lawyer', 'point_of_interest', 'establishment']"
Bar-Handel,55.6752245,12.5852622,"['bar', 'point_of_interest', 'establishment']"
Christian IV's gamle børssal,55.6752856,12.5854938,"['tourist_attraction', 'point_of_interest', 'establishment']"
Danske Speditører,55.6751344,12.5859149,"['point_of_interest', 'establishment']"
Kemi & Life Science,55.6751344,12.5859149,"['point_of_interest', 'establishment']"
Vikarbureauernes Brancheforening,55.6751344,12.5859149,"['point_of_interest', 'establishment']"
Dansk Værktøjsmaskinforhandler Forening (Dvf),55.6751344,12.5859149,"['point_of_interest', 'establishment']"
Turistvognmændenes Arbejdsgiverforening,55.6751344,12.5859149,"['point_of_interest', 'establishment']"
Genvindingsindustrien,55.6751344,12.5859149,"['point_of_interest', 'establishment']"
Fotobranchens Leverandørforening,55.6751344,12.5859149,"['point_of_interest', 'establishment']"
Den Danske Fondsmæglerforening,55.6751344,12.5859149,"['point_of_interest', 'establishment']"
Forlæggerforeningen,55.6751344,12.5859149,"['point_of_interest', 'establishment']"
Københavnertunnelgruppen,55.6751344,12.5859149,"['point_of_interest', 'establishment']"
Københavns Speditørforening,55.6751344,12.5859149,"['point_of_interest', 'establishment']"
Danske Luftfragtspeditørers Forening,55.6751344,12.5859149,"['point_of_interest', 'establishment']"
Legetøjsbranchens Fællesråd,55.6751344,12.5859149,"['point_of_interest', 'establishment']"
Tom Tom Beat Music v/Tom Østrup,55.6375821,12.5920123,"['point_of_interest', 'establishment']"
Natural Surroundings v/Majbritte Ulrikkeholm,55.6375821,12.5920123,"['point_of_interest', 'establishment']"
"Mind Me - psykoterapeut & parterapeut Kirsten Østrup, Amager - parterapi & psykoterapi",55.636958,12.591693,"['health', 'point_of_interest', 'establishment']"
Toskiftevej (Kongelundsvej),55.637851,12.5887045,"['transit_station', 'point_of_interest', 'establishment']"
Grundejerforeningen Ildkulen,55.6383691,12.5890804,"['point_of_interest', 'establishment']"
Tuelandsvænge Ejendom,55.6383691,12.5890804,"['point_of_interest', 'establishment']"
Hafnov Ejendomsservise Aps,55.6388513,12.5902985,"['point_of_interest', 'establishment']"
Know Your Planet,55.638671,12.5901979,"['point_of_interest', 'establishment']"
Nihilistisk Folkeparti,55.638341,12.589802,"['point_of_interest', 'establishment']"
Benjamin Arvid Jaeger,55.638324,12.590087,"['point_of_interest', 'establishment']"
Toskiftevej (Kongelundsvej),55.6380345,12.5887293,"['transit_station', 'point_of_interest', 'establishment']"
Quick & Clean ApS,55.639025,12.59101,"['point_of_interest', 'establishment']"
Air International ApS,55.639025,12.59101,"['point_of_interest', 'establishment']"
Quick International Money Transferaps,55.639025,12.59101,"['point_of_interest', 'establishment']"
Mao Abdiaziz Mohammad,55.6378356,12.5886836,"['point_of_interest', 'establishment']"
Blomsterdekoratørerne V/birgitte Nielsen,55.63578919999999,12.5897728,"['florist', 'point_of_interest', 'store', 'establishment']"
Jeppe Winding,55.63769370000001,12.588701,"['point_of_interest', 'establishment']"
Toskiftevej (Kongelundsvej),55.6376672,12.5886798,"['transit_station', 'point_of_interest', 'establishment']"
Nielsen Åse,55.637642,12.589722,"['point_of_interest', 'establishment']"
Nielsen Marianne,55.637642,12.589722,"['point_of_interest', 'establishment']"
Candanlish v/Peter Sabroe Larsen,55.6374609,12.5884855,"['point_of_interest', 'establishment']"
Banke Byg,55.6384675,12.5910668,"['point_of_interest', 'establishment']"
Amager Bolig,55.6384675,12.5910668,"['point_of_interest', 'establishment']"
Høstakken Vuggestue,55.6368434,12.5878016,"['point_of_interest', 'establishment']"
Lillebyen,55.63716689999999,12.5870471,"['point_of_interest', 'establishment']"
Netrom Consult v/Morten Klærke Hansen,55.636627,12.589693,"['point_of_interest', 'establishment']"
On Flor Production,55.6353793,12.5865368,"['point_of_interest', 'establishment']"
Fusion,55.63536299999999,12.5867799,"['point_of_interest', 'establishment']"
HSP Tømrer og Snedker ApS,55.634988,12.586078,"['general_contractor', 'point_of_interest', 'establishment']"
Chilis pizza,55.6345251,12.5886836,"['restaurant', 'meal_delivery', 'meal_takeaway', 'food', 'point_of_interest', 'establishment']"
Aleksandar Jovanovic (Speciallæge i Psykiatri),55.6339987,12.5895357,"['doctor', 'health', 'point_of_interest', 'establishment']"
Linkhouse v/Palle Ellegaard Christensen,55.6335691,12.587842,"['point_of_interest', 'establishment']"
hypervizion.digital.lab,55.633762,12.586188,"['point_of_interest', 'establishment']"
Kennel Tuasiwa,55.63457640000001,12.5900423,"['point_of_interest', 'establishment']"
Kanadavej (Kongelundsvej),55.6348958,12.588291,"['transit_station', 'point_of_interest', 'establishment']"
Rasmus Warming,55.636061,12.587845,"['point_of_interest', 'establishment']"
Murerfirmaet Bækgaard,55.636164,12.5882912,"['general_contractor', 'point_of_interest', 'establishment']"
Octopus+Co V/margrit Veng,55.6361303,12.5886065,"['point_of_interest', 'establishment']"
Lynge / Per Stenmann,55.63602299999999,12.5873208,"['point_of_interest', 'establishment']"
Andersen / Hans Henry,55.63602299999999,12.5873208,"['point_of_interest', 'establishment']"
Love Rocks Music v/Nikolaj Grandjean,55.63646079999999,12.5884682,"['point_of_interest', 'establishment']"
Langestrands Fladhjul,55.6364487,12.5868331,"['point_of_interest', 'establishment']"
Track 72 v/Anders Kristiansen,55.6364487,12.5868331,"['point_of_interest', 'establishment']"
BabyMums,55.6360256,12.5865727,"['point_of_interest', 'store', 'establishment']"
Lecher Glas ApS,55.636173,12.589511,"['point_of_interest', 'establishment']"
Kanadavej (Kongelundsvej),55.63516000000001,12.5883231,"['transit_station', 'point_of_interest', 'establishment']"
Big Dreams ApS,55.635386,12.589373,"['point_of_interest', 'establishment']"
Siegismund Music Group v/Lasse Siegismund,55.635386,12.589373,"['point_of_interest', 'establishment']"
Lukas Graham v/Lukas Forchhammer,55.635386,12.589373,"['point_of_interest', 'establishment']"
Players And Smokers ApS,55.6350651,12.5885498,"['point_of_interest', 'establishment']"
Nordvand Export 2012 ApS,55.6350651,12.5885498,"['point_of_interest', 'establishment']"
E/F Kongelundsvej 99,55.6350651,12.5885498,"['point_of_interest', 'establishment']"
Legeplads,55.63556810000001,12.5863479,"['point_of_interest', 'establishment']"
Seistrup Gulve,55.636232,12.589975,"['point_of_interest', 'establishment']"
Fodterapi Hos Dig,55.636928,12.586796,"['point_of_interest', 'establishment']"
Boserup Multiservice,55.636928,12.586796,"['point_of_interest', 'establishment']"
Ps Consult v/Peter Schwennesen,55.63523199999999,12.5895681,"['point_of_interest', 'establishment']"
Christensen / Susanne,55.63483919999999,12.5882882,"['point_of_interest', 'establishment']"
P/F Elmegården,55.635334,12.586237,"['point_of_interest', 'establishment']"
Art Giga,55.63626799999999,12.585686,"['point_of_interest', 'establishment']"
Kanadavej (Kongelundsvej),55.6346313,12.5882589,"['transit_station', 'point_of_interest', 'establishment']"
Nimworks v/Michael Danielsson,55.6365734,12.5856631,"['point_of_interest', 'establishment']"
Ninna Flor,55.635469,12.585645,"['point_of_interest', 'establishment']"
Revision Brøndby ApS,55.6345772,12.5885392,"['point_of_interest', 'establishment']"
A. Pank Invest ApS,55.6365969,12.5854567,"['point_of_interest', 'establishment']"
Al Regnskabsservice v/Annette Susan Lindgren,55.634458,12.587619,"['point_of_interest', 'establishment']"
Team Rasmus,55.634434,12.587807,"['point_of_interest', 'establishment']"
Cafe Middelgrund ApS Under Konkurs,55.63441899999999,12.588108,"['cafe', 'food', 'point_of_interest', 'establishment']"
Absolut Byg & Service,55.6333821,12.5867676,"['point_of_interest', 'establishment']"
Duab Afdeling 21 Amagerkollegiet,55.633433,12.585777,"['point_of_interest', 'establishment']"
Stine & Ko Aps,55.63405359999999,12.5914622,"['point_of_interest', 'establishment']"
Amagerkollegiet,55.6334793,12.5855279,"['lodging', 'point_of_interest', 'establishment']"
Danbra (Db),55.634472,12.589273,"['atm', 'finance', 'point_of_interest', 'establishment']"
Ablaze Design v/ Christian Vejgaard,55.6341103,12.5878907,"['point_of_interest', 'establishment']"
P.F. Håndværkerservice v/Per Flemming Frederiksen,55.63440010000001,12.5865332,"['point_of_interest', 'establishment']"
Gf Nyvang,55.6342244,12.5864756,"['point_of_interest', 'establishment']"
Keppner Monika & Harald,55.6348735,12.5900533,"['point_of_interest', 'establishment']"
Hm Shoppen,55.6348735,12.5900533,"['point_of_interest', 'establishment']"
Tøvlesø Holding ApS,55.6336269,12.5878141,"['point_of_interest', 'establishment']"
Udlejer Kim Tøvlesø Simonsen,55.6336269,12.5878141,"['point_of_interest', 'establishment']"
A M I/S,55.6338956,12.5864726,"['point_of_interest', 'establishment']"
Nybolig Kastrup & Tårnby,55.6346255,12.5854438,"['point_of_interest', 'establishment']"
Min Fars Juletræer,55.6346693,12.5906101,"['point_of_interest', 'establishment']"
Kalvebod Faelled,55.6345484,12.5906629,"['point_of_interest', 'establishment']"
Nordic Trading ApS,55.63234800000001,12.5869009,"['point_of_interest', 'establishment']"
Tina Mai/Amy Rose v/Tina Mai Jørgensen,55.63223079999999,12.5867825,"['point_of_interest', 'establishment']"
Grundejerforeningen Fælledbo,55.6317104,12.5862232,"['point_of_interest', 'establishment']"
Alumbra,55.6309463,12.5865528,"['point_of_interest', 'establishment']"
Guma Gruppen ApS,55.63100619999999,12.5859766,"['point_of_interest', 'establishment']"
Mott Udlejning,55.63040580000001,12.5862844,"['food', 'point_of_interest', 'establishment']"
Dominik Film & Software ApS,55.6309722,12.5849212,"['point_of_interest', 'establishment']"
B-F-Firkløveren,55.6304346,12.5848989,"['point_of_interest', 'establishment']"
Anders Munk,55.631322,12.5874157,"['doctor', 'health', 'point_of_interest', 'establishment']"
Jord Under Neglene v/Anne Holst Andersen,55.63161299999999,12.587406,"['point_of_interest', 'establishment']"
Jeanette Siering,55.6329098,12.5877959,"['point_of_interest', 'establishment']"
Bjn 2013 ApS,55.6325805,12.5876873,"['point_of_interest', 'establishment']"
Pyour - Detox,55.63234800000001,12.5869009,"['point_of_interest', 'establishment']"
Bygge og Service Banditten ApS,55.63234800000001,12.5869009,"['point_of_interest', 'establishment']"
Flan Holding ApS,55.63234800000001,12.5869009,"['finance', 'point_of_interest', 'establishment']"
Is Bar,55.632892,12.5877854,"['food', 'point_of_interest', 'store', 'establishment']"
Vikle Kimie,55.6327884,12.5888384,"['point_of_interest', 'establishment']"
Boligfryd v/Claus og Mette Holm,55.632813,12.586976,"['point_of_interest', 'establishment']"
Joachim Service,55.6330733,12.5877494,"['point_of_interest', 'establishment']"
ApS Matr. Nr. 850 Sundbyøster,55.63296829999999,12.5868925,"['point_of_interest', 'establishment']"
Vask & Rens ApS,55.6329757,12.5867436,"['point_of_interest', 'establishment']"
Guldspurven v/Dennis Busing,55.63327930000001,12.5877912,"['point_of_interest', 'establishment']"
Alivia,55.6309463,12.5865528,"['point_of_interest', 'establishment']"
Ørestad Marked,55.63071799999999,12.587277,"['point_of_interest', 'establishment']"
Thealphamart,55.632883,12.5861081,"['point_of_interest', 'establishment']"
Fredholt Restaurationsanpartsselskab,55.6331905,12.5863989,"['point_of_interest', 'establishment']"
Mike Sheridan,55.63045649999999,12.5872635,"['point_of_interest', 'establishment']"
Slusevej (Kongelundsvej),55.6303691,12.5876464,"['transit_station', 'point_of_interest', 'establishment']"
Dansk-Kazakhisk Kultur Forening,55.6305556,12.5864351,"['point_of_interest', 'establishment']"
Christian Hjorth Andreasen Holding IVS,55.6325197,12.5850934,"['point_of_interest', 'establishment']"
D.Dollerup,55.6325197,12.5850934,"['point_of_interest', 'establishment']"
Blaastrup.dk,55.632606,12.5910001,"['point_of_interest', 'establishment']"
Yoga På Vesterbro Aps,55.6326043,12.5910195,"['point_of_interest', 'establishment']"
Tang Form Ivs,55.6322474,12.5846425,"['point_of_interest', 'establishment']"
Say Phuc Ly,55.6304807,12.5859331,"['point_of_interest', 'establishment']"
Slusevej (Kongelundsvej),55.6299798,12.5875869,"['transit_station', 'point_of_interest', 'establishment']"
COMBI Solution ApS,55.6304737,12.5858276,"['point_of_interest', 'establishment']"
Star Aps,55.6326256,12.5846265,"['point_of_interest', 'establishment']"
Radio Magas,55.6326256,12.5846265,"['point_of_interest', 'establishment']"
Rosendahl Vvs & Kloakservice Aps,55.6309722,12.5849212,"['general_contractor', 'point_of_interest', 'establishment']"
Hypervizion v/Jakob M Mortensen,55.633762,12.586188,"['point_of_interest', 'establishment']"
Kongelundsvej (Slusevej),55.63005870000001,12.5868869,"['transit_station', 'point_of_interest', 'establishment']"
Coco Consulting S.m.b.a,55.631757,12.584352,"['point_of_interest', 'establishment']"
Daxton Consulting Group S.m.b.a I Likvidation,55.6332811,12.5849089,"['point_of_interest', 'establishment']"
Hvass Vision,55.6332811,12.5849089,"['point_of_interest', 'establishment']"
Amager Skovhjælpere v/Mads Madsen,55.6291311,12.5863829,"['point_of_interest', 'establishment']"
Np Byg,55.628863,12.5870149,"['point_of_interest', 'establishment']"
Søren Steen Olsen,55.629183,12.5854226,"['point_of_interest', 'establishment']"
Brdr Svensson A/S,55.63078400000001,12.5926871,"['point_of_interest', 'establishment']"
Chris Lightning Castle Holding ApS,55.6294914,12.5870648,"['point_of_interest', 'establishment']"
Kjr Aps,55.629685,12.586262,"['point_of_interest', 'establishment']"
Jane Rowley Texts & Translations,55.62957979999999,12.5865239,"['point_of_interest', 'establishment']"
Angus,55.6296325,12.5859582,"['point_of_interest', 'establishment']"
Søndergaard & Howalt ApS,55.6296325,12.5859582,"['point_of_interest', 'establishment']"
I Am Cooking,55.62997799999999,12.585245,"['restaurant', 'food', 'point_of_interest', 'establishment']"
The Agency v/Astrid Hytten,55.6296598,12.5853584,"['point_of_interest', 'establishment']"
Hanne Barild,55.62918699999999,12.5863992,"['point_of_interest', 'establishment']"
Kaleidoskop,55.63060689999999,12.5844027,"['point_of_interest', 'establishment']"
Dit Skøde,55.6305193,12.5843808,"['point_of_interest', 'establishment']"
Cirkeltræning - Tårnby 1 ApS,55.630615,12.584025,"['point_of_interest', 'establishment']"
Bløndal Leon,55.630615,12.584025,"['point_of_interest', 'establishment']"
Studio Peter Frimand,55.628901,12.5863413,"['point_of_interest', 'establishment']"
P/F Våren Af 1949,55.62973869999999,12.5845404,"['point_of_interest', 'establishment']"
"Træfældning Amager, Træslagteren",55.629183,12.5854226,"['point_of_interest', 'establishment']"
3R Rengøring,55.6304856,12.5839131,"['point_of_interest', 'establishment']"
Lamut Mette Og Julien,55.62908579999999,12.5840404,"['real_estate_agency', 'point_of_interest', 'establishment']"
Nexttime Europe Holding ApS,55.62908579999999,12.5840404,"['point_of_interest', 'establishment']"
Towns Media v/Lars Greir,55.6302344,12.5835306,"['point_of_interest', 'establishment']"
Foreningen Teater Manifold,55.6302344,12.5835306,"['point_of_interest', 'establishment']"
Holdingselskabet af 15. April 2014 ApS,55.6305297,12.5835085,"['point_of_interest', 'establishment']"
Gonz Clothing ApS,55.6305297,12.5835085,"['clothing_store', 'point_of_interest', 'store', 'establishment']"
Kvickly,55.6945457,12.5475868,"['supermarket', 'grocery_or_supermarket', 'home_goods_store', 'food', 'point_of_interest', 'store', 'establishment']"
Pølsemand Helge Kragh,55.6935026,12.5523778,"['point_of_interest', 'establishment']"
Bog & idé Nørrebrogade,55.6952461,12.547267,"['book_store', 'point_of_interest', 'store', 'establishment']"
Jan K ApS,55.69591209999999,12.5455413,"['point_of_interest', 'establishment']"
ALDI,55.69369080000001,12.5478908,"['supermarket', 'bakery', 'grocery_or_supermarket', 'liquor_store', 'food', 'point_of_interest', 'store', 'establishment']"
Gastronomia Italiana 5 (Jagtvej),55.6957586,12.5502119,"['restaurant', 'food', 'point_of_interest', 'establishment']"
Aeiat Marked v/Aeiat Abdulsaheb Munir Radi,55.69655369999999,12.5459043,"['point_of_interest', 'establishment']"
Street Cut,55.69483830000001,12.5482561,"['hair_care', 'point_of_interest', 'establishment']"
Tandlægerne ved Runddelen,55.6947682,12.5483793,"['dentist', 'health', 'point_of_interest', 'establishment']"
Realmæglerne Lenzberg & Kristensen,55.695237,12.549518,"['real_estate_agency', 'point_of_interest', 'establishment']"
Ejerforeningen Gormsgade 6-8 og 10,55.6971036,12.5461226,"['point_of_interest', 'establishment']"
Fensmarkskolen,55.6959738,12.5530901,"['primary_school', 'school', 'point_of_interest', 'establishment']"
Bonnie Dyrecenter,55.6943645,12.5482255,"['pet_store', 'point_of_interest', 'store', 'establishment']"
Retro Cykler,55.69486999999999,12.549106,"['bicycle_store', 'point_of_interest', 'store', 'establishment']"
Nybolig Nørrebro / Jagtvej - Munch & Bjerregaard,55.69315470000001,12.5473382,"['finance', 'point_of_interest', 'establishment']"
Jagtvejens Blomster,55.6946668,12.5495045,"['florist', 'point_of_interest', 'store', 'establishment']"
Akademiet For Kunst og Tegning v/Michelle Lynton Brosse,55.6950272,12.5479704,"['point_of_interest', 'establishment']"
classiccykler,55.6960185,12.5465701,"['bicycle_store', 'point_of_interest', 'store', 'establishment']"
Nørrebro,55.6991166,12.5542484,"['sublocality_level_2', 'sublocality', 'political']"
Gastronomisk Legestue,55.693967,12.5511496,"['point_of_interest', 'establishment']"
Lægehjørnet,55.6958317,12.5508087,"['doctor', 'health', 'point_of_interest', 'establishment']"
Tine Søndergaard,55.69383129999999,12.5500278,"['doctor', 'health', 'point_of_interest', 'establishment']"
Sankt Stefans Apotek,55.69468250000001,12.5489175,"['pharmacy', 'health', 'point_of_interest', 'store', 'establishment']"
Strictly Knit - Stort udvalg af pyntepuder til boligen - Vi ses online!,55.69419689999999,12.5501013,"['point_of_interest', 'establishment']"
Jannie Hansen,55.69483,12.548306,"['hair_care', 'point_of_interest', 'establishment']"
Liniebyg v/Reza Bazaz,55.6944472,12.5508423,"['point_of_interest', 'establishment']"
A/B Thorsgade 3-13,55.69596,12.5472978,"['point_of_interest', 'establishment']"
Data Service/I4b ApS,55.695254,12.54766,"['point_of_interest', 'establishment']"
Camilla Prasch,55.69492400000001,12.546325,"['point_of_interest', 'establishment']"
Cortado Kaffebar,55.694349,12.549393,"['cafe', 'restaurant', 'food', 'point_of_interest', 'store', 'establishment']"
Steffen Lefort Photography,55.695062,12.549314,"['point_of_interest', 'establishment']"
byebyebirdy.dk,55.695062,12.549314,"['point_of_interest', 'establishment']"
Coop365 Jagtvej Kbh N,55.695149,12.549418,"['supermarket', 'grocery_or_supermarket', 'food', 'point_of_interest', 'store', 'establishment']"
Fuugacph v/Rikke Hymøller,55.6947,12.548788,"['point_of_interest', 'establishment']"
Rejsevaccination på Apoteket,55.6947,12.548788,"['health', 'point_of_interest', 'establishment']"
Lulu Badulla ApS,55.69483,12.548306,"['point_of_interest', 'establishment']"
Execonnect ApS,55.6946008,12.5494357,"['point_of_interest', 'establishment']"
Cafe Break,55.695342,12.5496335,"['cafe', 'food', 'point_of_interest', 'establishment']"
Pil Brøndum Gad,55.69448240000001,12.5493287,"['point_of_interest', 'establishment']"
Hulahophuset,55.69499080000001,12.55003,"['point_of_interest', 'establishment']"
Tandteknikere v/Jesper Holmstrøm,55.694381,12.5482816,"['dentist', 'health', 'point_of_interest', 'establishment']"
Royal Bagel,55.69504459999999,12.5475535,"['bakery', 'restaurant', 'food', 'point_of_interest', 'store', 'establishment']"
Takii,55.696498,12.550941,"['restaurant', 'food', 'point_of_interest', 'establishment']"
Lagkagehuset,55.6941735,12.5493383,"['bakery', 'cafe', 'food', 'point_of_interest', 'store', 'establishment']"
Ellis Records v/Cecilie Enevold Nielsen,55.695683,12.549928,"['point_of_interest', 'establishment']"
Wemedia v/Patrick Louis Albrechtsen Clausen,55.69577839999999,12.5482088,"['point_of_interest', 'establishment']"
Dr. Mobile og Computer,55.69535690000001,12.5474949,"['point_of_interest', 'store', 'establishment']"
Yaqup,55.69538499999999,12.547465,"['point_of_interest', 'establishment']"
Ignatius.DK v/Bjørn Ignatius Øckenholt,55.69441639999999,12.5504387,"['art_gallery', 'point_of_interest', 'establishment']"
Runddelens Bedemandsforretning,55.6957435,12.5501817,"['funeral_home', 'point_of_interest', 'establishment']"
WokAmok,55.695788,12.550234,"['restaurant', 'food', 'point_of_interest', 'establishment']"
IFIX MOBIL,55.695837,12.550196,"['point_of_interest', 'store', 'establishment']"
Audebo & Co.,55.6957991,12.5476043,"['point_of_interest', 'establishment']"
Fitness World,55.69583410000001,12.5502897,"['gym', 'health', 'point_of_interest', 'establishment']"
Claus Tingstrøm A/S,55.696498,12.550941,"['food', 'point_of_interest', 'establishment']"
Punctum v/Marte Kopperud,55.69480900000001,12.546856,"['point_of_interest', 'establishment']"
Hjerte Genbrug,55.693866,12.5498333,"['point_of_interest', 'store', 'establishment']"
Coregrafit,55.69491,12.546785,"['point_of_interest', 'establishment']"
Byhave 69,55.69385149999999,12.5481053,"['park', 'point_of_interest', 'establishment']"
Netto,55.6998176,12.5527468,"['grocery_or_supermarket', 'supermarket', 'food', 'point_of_interest', 'store', 'establishment']"
Rigshospitalets Kollegium,55.6991154,12.5548725,"['point_of_interest', 'establishment']"
Jon Nordstrøm,55.6995824,12.5505308,"['point_of_interest', 'establishment']"
Spurt Cykler,55.6989037,12.5542647,"['bicycle_store', 'point_of_interest', 'store', 'establishment']"
Mariah Victori Design,55.69821710000001,12.5534561,"['point_of_interest', 'clothing_store', 'store', 'establishment']"
Salon Ydun,55.6985087,12.5529087,"['hair_care', 'point_of_interest', 'establishment']"
Tagensborg Bodega,55.6991383,12.5538922,"['bar', 'point_of_interest', 'establishment']"
Bjerre,55.6980447,12.5527831,"['hair_care', 'point_of_interest', 'establishment']"
Psykolog Ole Larsen,55.69795149999999,12.552041,"['health', 'point_of_interest', 'establishment']"
OlymPeak Consulting Ltd.,55.6990434,12.5560737,"['health', 'point_of_interest', 'establishment']"
Astrid Noacks Atelier,55.69968979999999,12.5510071,"['point_of_interest', 'establishment']"
Tagensvej58,55.70077700000001,12.552253,"['point_of_interest', 'establishment']"
A/B Kronborggade 1/Jagtvej 31,55.698623,12.553331,"['point_of_interest', 'establishment']"
Onconox ApS,55.6988591,12.5555028,"['point_of_interest', 'establishment']"
CLUBTAN Sol & Wellness,55.69927800000001,12.553693,"['beauty_salon', 'point_of_interest', 'establishment']"
Albeda Research ApS,55.69878199999999,12.556227,"['point_of_interest', 'establishment']"
Cobis Management,55.6987457,12.556001,"['point_of_interest', 'establishment']"
Administrationsfirmaet,55.698623,12.553331,"['point_of_interest', 'establishment']"
Aros Pharma ApS,55.6988591,12.5555028,"['health', 'point_of_interest', 'establishment']"
Helion Biotech ApS,55.6990434,12.5560737,"['point_of_interest', 'establishment']"
Gårdlavet Rolighed,55.698623,12.553331,"['point_of_interest', 'establishment']"
Dansk Biotek,55.6988591,12.5555028,"['lodging', 'point_of_interest', 'establishment']"
Xenia Pharma v/Dorte Xenia Gram,55.6988591,12.5555028,"['point_of_interest', 'establishment']"
Acesion Pharma ApS,55.6988591,12.5555028,"['health', 'point_of_interest', 'establishment']"
Niels Gammelgaard Design ApS,55.6975891,12.5546217,"['point_of_interest', 'establishment']"
Cut Work,55.69925279999999,12.5536466,"['beauty_salon', 'hair_care', 'point_of_interest', 'establishment']"
Royal Bagel,55.699417,12.5535261,"['restaurant', 'bakery', 'food', 'point_of_interest', 'store', 'establishment']"
J Bjørn Ejendomsservice v/Jakob Malthe Bjørn,55.69860500000001,12.554571,"['point_of_interest', 'establishment']"
A/B Holger Danske,55.698623,12.553331,"['point_of_interest', 'establishment']"
A/B Højdevej 22-24,55.698623,12.553331,"['point_of_interest', 'establishment']"
A/B Kastaniehøj,55.698623,12.553331,"['bus_station', 'transit_station', 'point_of_interest', 'establishment']"
E/F Nørrebrogade 1,55.698623,12.553331,"['point_of_interest', 'establishment']"
A/B Heinesgade 10-12,55.698623,12.553331,"['point_of_interest', 'establishment']"
Andelsboligforeningen Sankt Pauls Gade 7,55.698623,12.553331,"['point_of_interest', 'establishment']"
A/B Vævergade/Kapelvej,55.698623,12.553331,"['point_of_interest', 'establishment']"
Ejerforen. Hessensgade 23-29/ Bremensgade 28,55.698623,12.553331,"['point_of_interest', 'establishment']"
E/F Ågade 94,55.698623,12.553331,"['point_of_interest', 'establishment']"
A/B Berners Stiftelse,55.698525,12.553553,"['point_of_interest', 'establishment']"
A/B Sporvognen,55.698525,12.553553,"['point_of_interest', 'establishment']"
Erhvervsservice v/Bo Sperling,55.6993246,12.5529489,"['point_of_interest', 'establishment']"
INGO,55.69973969999999,12.5537729,"['gas_station', 'car_wash', 'point_of_interest', 'establishment']"
Jupiter Cykler,55.6995734,12.5529846,"['bicycle_store', 'point_of_interest', 'store', 'establishment']"
Leon Studio,55.6991364,12.5525845,"['point_of_interest', 'establishment']"
Kobe v/Lærke Lynge Nordentoft,55.6983677,12.5530215,"['point_of_interest', 'establishment']"
Medicollect ApS,55.6988591,12.5555028,"['point_of_interest', 'establishment']"
Acronordic Health Claim Services ApS,55.6988591,12.5555028,"['point_of_interest', 'establishment']"
Orphazyme,55.6988591,12.5555028,"['point_of_interest', 'establishment']"
Levoss Aps,55.6988591,12.5555028,"['point_of_interest', 'establishment']"
Arts Biologics A/S,55.6988591,12.5555028,"['point_of_interest', 'establishment']"
The Back Office,55.6988591,12.5555028,"['point_of_interest', 'establishment']"
Var2 Pharmaceuticals ApS,55.6988591,12.5555028,"['point_of_interest', 'establishment']"
Epitherapeutics ApS,55.6988591,12.5555028,"['point_of_interest', 'establishment']"
Promokontoret v/Jannik Christiansen,55.69821870000001,12.5529319,"['point_of_interest', 'establishment']"
Mequ A/S,55.698957,12.5559162,"['point_of_interest', 'establishment']"
Elektriske Optagelser,55.6984131,12.5523613,"['point_of_interest', 'establishment']"
Kousholt Consult,55.6992398,12.5520437,"['point_of_interest', 'establishment']"
AUTO CERT Danmark ApS,55.6990152,12.5559847,"['car_repair', 'point_of_interest', 'establishment']"
Ismail Beciri,55.698204,12.555395,"['point_of_interest', 'establishment']"
4-0-17-25 v/Berit Røgild,55.708733,12.577675,"['point_of_interest', 'establishment']"
Domino's Pizza,55.70773,12.5771071,"['meal_delivery', 'meal_takeaway', 'restaurant', 'food', 'point_of_interest', 'establishment']"
Østre Gasværk Theater,55.71003839999999,12.5818456,"['point_of_interest', 'establishment']"
1 Duangjai Thai Restaurant,55.70963339999999,12.5780895,"['restaurant', 'food', 'point_of_interest', 'establishment']"
Profil Optik,55.708475,12.5777053,"['health', 'point_of_interest', 'store', 'establishment']"
Kost-klinikken Immanuel,55.7113536,12.5771919,"['health', 'point_of_interest', 'establishment']"
Dagens Fisk,55.70898529999999,12.5776954,"['food', 'point_of_interest', 'store', 'establishment']"
Banditten,55.70739629999999,12.5777335,"['point_of_interest', 'store', 'establishment']"
Maconomy A/S,55.7078606,12.5801646,"['point_of_interest', 'establishment']"
Teater Hund & Co.,55.7084431,12.5766692,"['point_of_interest', 'establishment']"
Psykolog Inge Guldal Pedersen,55.7078606,12.5801645,"['health', 'point_of_interest', 'establishment']"
Matas Østerbrogade 142,55.7075,12.577691,"['drugstore', 'food', 'health', 'point_of_interest', 'clothing_store', 'store', 'establishment']"
Lohmann Thomas Bugge,55.70741,12.5798639,"['point_of_interest', 'establishment']"
Mobile Fitness A/S,55.7089751,12.5778361,"['point_of_interest', 'establishment']"
Mia Mills Fashion,55.70805190000001,12.5777278,"['clothing_store', 'point_of_interest', 'store', 'establishment']"
Schannong Mogens (Stenhugger),55.7096303,12.5768655,"['point_of_interest', 'establishment']"
Sisi Skrædder,55.70955,12.577819,"['point_of_interest', 'establishment']"
Elsebeth Hansen,55.7074151,12.5776504,"['doctor', 'health', 'point_of_interest', 'establishment']"
Kaae Peter (Tandlæge),55.70896159999999,12.5779017,"['dentist', 'health', 'point_of_interest', 'establishment']"
Skolefritidshjemmet Vibenshus,55.708763,12.5787877,"['point_of_interest', 'establishment']"
Vibenshus Boligforening,55.70837,12.578376,"['point_of_interest', 'establishment']"
The law firm Jelsdorf & Henriksen,55.709624,12.577261,"['point_of_interest', 'establishment']"
Tolstrup Pryds Grafisk Tegnestue,55.7095103,12.5780821,"['point_of_interest', 'establishment']"
Andreas Broe Løwe,55.70900870000001,12.5803941,"['point_of_interest', 'establishment']"
Jens Parker,55.7073544,12.5779223,"['doctor', 'health', 'point_of_interest', 'establishment']"
webmastersystem,55.70841360000001,12.5807241,"['grocery_or_supermarket', 'food', 'point_of_interest', 'store', 'establishment']"
Øbro congregation Kindergarten dept. David,55.707278,12.579152,"['school', 'point_of_interest', 'establishment']"
Psykolog Marianne Kruse,55.7078606,12.5801645,"['health', 'point_of_interest', 'establishment']"
Rudolph Als A/S,55.7096303,12.5768655,"['point_of_interest', 'establishment']"
Biotech-igg A/S,55.7085896,12.576571,"['point_of_interest', 'establishment']"
Charlotte Snede,55.7088183,12.5798647,"['point_of_interest', 'establishment']"
I-Guide Aps,55.7089751,12.5778361,"['point_of_interest', 'establishment']"
Clear Light Buddhist Centre,55.7096303,12.5768655,"['school', 'point_of_interest', 'establishment']"
Pitcrew,55.70736489999999,12.5771245,"['car_repair', 'point_of_interest', 'store', 'establishment']"
Doctor Stig Balk-Møller,55.707276,12.577686,"['health', 'point_of_interest', 'establishment']"
